SALE TYPE,SOLD DATE,PROPERTY TYPE,ADDRESS,CITY,STATE,ZIP,PRICE,BEDS,BATHS,LOCATION,SQUARE FEET,LOT SIZE,YEAR BUILT,DAYS ON MARKET,$/SQUARE FEET,HOA/MONTH,STATUS,NEXT OPEN HOUSE START TIME,NEXT OPEN HOUSE END TIME,URL (SEE http://www.redfin.com/buy-a-home/comparative-market-analysis FOR INFO ON PRICING),SOURCE,MLS#,FAVORITE,INTERESTED,LATITUDE,LONGITUDE
PAST SALE,February-14-2017,Single Family Residential,4641 Doreen Ave,El Monte,CA,91731,494500,3,1.5,619 - El Monte,1088,5239,1954,166,455,,Sold,,,http://www.redfin.com/CA/El-Monte/4641-Doreen-Ave-91731/home/8002325,i-Tech MLS,316010885,N,Y,34.0901023,-118.0400608
PAST SALE,February-28-2013,Single Family Residential,12060 Hallwood Dr,El Monte,CA,91732,488000,3,2.0,619 - El Monte,1700,12262,1938,1613,287,,Sold,,,http://www.redfin.com/CA/El-Monte/12060-Hallwood-Dr-91732/home/7985352,CRMLS,BB12145555,N,Y,34.0901054,-118.003196
PAST SALE,December-9-2016,Townhouse,3602 Maxson Rd Unit L,El Monte,CA,91732,315000,2,2.0,619 - El Monte,1015,905,1980,233,310,150,Sold,,,http://www.redfin.com/CA/El-Monte/3602-Maxson-Rd-91732/unit-L/home/7986942,i-Tech MLS,316010171,N,Y,34.0685182,-118.0108939
PAST SALE,December-30-2016,Single Family Residential,12129 Wanda St,El Monte,CA,91732,432000,3,2.5,619 - El Monte,1552,3146,2002,212,278,80,Sold,,,http://www.redfin.com/CA/El-Monte/12129-Wanda-St-91732/home/8120063,i-Tech MLS,316010975,N,Y,34.0667206,-118.0137024
PAST SALE,March-28-2014,Single Family Residential,12023 LOWER AZUSA Rd,El Monte,CA,91732,520000,3,2.0,619 - El Monte,2221,13427,1957,1220,234,,Sold,,,http://www.redfin.com/CA/El-Monte/12023-Lower-Azusa-Rd-91732/home/7985422,CRMLS,BB14025417,N,Y,34.0879,-118.0055562
PAST SALE,April-27-2017,Single Family Residential,11713 Killian St,El Monte,CA,91732,455200,3,1.5,619 - El Monte,1160,7275,1965,94,392,,Sold,,,http://www.redfin.com/CA/El-Monte/11713-Killian-St-91732/home/7985722,i-Tech MLS,317002638,N,Y,34.0846353,-118.013544
PAST SALE,March-6-2012,Single Family Residential,3614 WINDSONG St,El Monte,CA,91732,275000,3,2.5,619 - El Monte,1433,1983,1988,1972,192,210,Sold,,,http://www.redfin.com/CA/El-Monte/3614-Windsong-St-91732/home/7987819,i-Tech MLS,22160072,N,Y,34.0673843,-118.0066408
PAST SALE,,Single Family Residential,4222 Kerman Ave,El Monte,CA,91731,140500,3,2.0,,1245,6724,1961,,113,,,,,http://www.redfin.com/CA/El-Monte/4222-Kerman-Ave-91731/home/7998651,,,N,Y,34.0833476,-118.0297636
PAST SALE,,Single Family Residential,10434 Schmidt Rd,South El Monte,CA,91733,175000,3,3.0,,1924,19096,1938,,91,,,,,http://www.redfin.com/CA/South-El-Monte/10434-Schmidt-Rd-91733/home/7794825,,,N,Y,34.0569599,-118.043547
PAST SALE,,Single Family Residential,10112 Maroon St,El Monte,CA,91733,115000,3,2.0,,1104,6102,1956,,104,,,,,http://www.redfin.com/CA/El-Monte/10112-Maroon-St-91733/home/7795100,,,N,Y,34.0602018,-118.0482477
PAST SALE,,Single Family Residential,2439 Central Ave,South El Monte,CA,91733,193000,2,2.0,,1733,10385,1930,,111,,,,,http://www.redfin.com/CA/South-El-Monte/2439-Central-Ave-91733/home/7795004,,,N,Y,34.0571467,-118.0473769
PAST SALE,,Single Family Residential,10334 Giovane St,El Monte,CA,91733,137272,2,1.0,,874,6008,1950,,157,,,,,http://www.redfin.com/CA/El-Monte/10334-Giovane-St-91733/home/7794675,,,N,Y,34.0614798,-118.0456873
PAST SALE,September-15-2011,Single Family Residential,10345 Giovane St,El Monte,CA,91733,355000,3,2.0,619 - El Monte,1502,5000,1976,2145,236,,Sold,,,http://www.redfin.com/CA/El-Monte/10345-Giovane-St-91733/home/7794712,CRMLS,W11059191,N,Y,34.0619011,-118.0453447
PAST SALE,July-10-2015,Single Family Residential,10429 Asher St,El Monte,CA,91733,360000,3,1.0,619 - El Monte,1145,5964,1944,751,314,,Sold,,,http://www.redfin.com/CA/El-Monte/10429-Asher-St-91733/home/8004259,CRMLS,WS15105253,N,Y,34.0683109,-118.0440902
PAST SALE,December-2-2010,Single Family Residential,10420 Asher St,El Monte,CA,91733,353000,3,1.75,619 - El Monte,1318,8848,1944,2432,268,,Sold,,,http://www.redfin.com/CA/El-Monte/10420-Asher-St-91733/home/8004312,CRMLS,W10102756,N,Y,34.0679239,-118.0443567
PAST SALE,November-18-2015,Single Family Residential,10511 Mildred St,El Monte,CA,91733,434000,3,1.0,619 - El Monte,1336,8434,1941,620,325,,Sold,,,http://www.redfin.com/CA/El-Monte/10511-Mildred-St-91733/home/8004323,i-Tech MLS,315009350,N,Y,34.0673021,-118.0432692
PAST SALE,June-26-2015,Single Family Residential,3137 Mayfair Ave,El Monte,CA,91733,380000,3,2.0,619 - El Monte,1113,4452,1953,765,341,,Sold,,,http://www.redfin.com/CA/El-Monte/3137-Mayfair-Ave-91733/home/8004407,CRMLS,WS15093328,N,Y,34.0652518,-118.0463674
PAST SALE,,Single Family Residential,3213 Granada Ave,El Monte,CA,91731,131000,2,2.0,,1910,5751,1948,,69,,,,,http://www.redfin.com/CA/El-Monte/3213-Granada-Ave-91731/home/8004508,,,N,Y,34.0673801,-118.0411908
PAST SALE,,Single Family Residential,3240 Granada Ave,El Monte,CA,91731,158000,2,1.0,,880,4607,1959,,180,,,,,http://www.redfin.com/CA/El-Monte/3240-Granada-Ave-91731/home/8004527,,,N,Y,34.0680047,-118.0404827
PAST SALE,,Single Family Residential,3129 Gage Ave,El Monte,CA,91731,161000,3,2.0,,1704,5855,1948,,94,,,,,http://www.redfin.com/CA/El-Monte/3129-Gage-Ave-91731/home/8004540,,,N,Y,34.0652697,-118.0402636
PAST SALE,January-31-2014,Single Family Residential,3145 Gage Ave,El Monte,CA,91731,410000,3,1.5,619 - El Monte,1243,5919,1948,1276,330,,Sold,,,http://www.redfin.com/CA/El-Monte/3145-Gage-Ave-91731/home/8004543,CRMLS,CV13205577,N,Y,34.065678,-118.0402268
PAST SALE,,Single Family Residential,3155 Gage Ave,El Monte,CA,91731,170000,3,2.0,,1307,5718,1941,,130,,,,,http://www.redfin.com/CA/El-Monte/3155-Gage-Ave-91731/home/8004545,,,N,Y,34.065956,-118.040244
PAST SALE,,Single Family Residential,3165 Gage Ave,El Monte,CA,91731,138000,3,2.0,,1802,6351,1941,,77,,,,,http://www.redfin.com/CA/El-Monte/3165-Gage-Ave-91731/home/8004548,,,N,Y,34.0663386,-118.0401865
PAST SALE,,Single Family Residential,3146 Granada Ave,El Monte,CA,91731,152000,3,2.0,,1295,5099,1948,,117,,,,,http://www.redfin.com/CA/El-Monte/3146-Granada-Ave-91731/home/8004559,,,N,Y,34.0658358,-118.0406874
PAST SALE,,Single Family Residential,3145 Lexington Ave,El Monte,CA,91731,246000,3,1.0,,1384,5608,1947,,178,,,,,http://www.redfin.com/CA/El-Monte/3145-Lexington-Ave-91731/home/8004610,,,N,Y,34.0657487,-118.0392607
PAST SALE,,Single Family Residential,3157 Lexington Ave,El Monte,CA,91731,130000,2,1.0,,806,6161,1941,,161,,,,,http://www.redfin.com/CA/El-Monte/3157-Lexington-Ave-91731/home/8004613,,,N,Y,34.0661592,-118.0392246
PAST SALE,,Single Family Residential,3166 Gage Ave,El Monte,CA,91731,139500,3,1.0,,1340,5060,1948,,104,,,,,http://www.redfin.com/CA/El-Monte/3166-Gage-Ave-91731/home/8004618,,,N,Y,34.0662751,-118.0396629
PAST SALE,,Single Family Residential,3156 Gage Ave,El Monte,CA,91731,150000,2,1.0,,1251,5850,1948,,120,,,,,http://www.redfin.com/CA/El-Monte/3156-Gage-Ave-91731/home/8004620,,,N,Y,34.0659804,-118.0396867
PAST SALE,,Single Family Residential,3227 Washington Ave,El Monte,CA,91731,180000,3,2.0,,1672,8448,1976,,108,,,,,http://www.redfin.com/CA/El-Monte/3227-Washington-Ave-91731/home/8004633,,,N,Y,34.0674099,-118.0383162
PAST SALE,,Single Family Residential,3158 Lexington Ave,El Monte,CA,91731,345000,2,2.0,,1372,5112,1941,,251,,,,,http://www.redfin.com/CA/El-Monte/3158-Lexington-Ave-91731/home/8004648,,,N,Y,34.0661954,-118.0386969
PAST SALE,,Single Family Residential,3148 Lexington Ave,El Monte,CA,91731,392500,3,2.0,,1597,5820,1941,,246,,,,,http://www.redfin.com/CA/El-Monte/3148-Lexington-Ave-91731/home/8004650,,,N,Y,34.0659079,-118.0386618
PAST SALE,,Single Family Residential,3120 Lexington Ave,El Monte,CA,91731,290000,2,1.0,,1062,5831,1941,,273,,,,,http://www.redfin.com/CA/El-Monte/3120-Lexington-Ave-91731/home/8004656,,,N,Y,34.0650815,-118.038754
PAST SALE,,Single Family Residential,3129 Washington Ave,El Monte,CA,91731,135000,3,1.0,,1506,6159,1927,,90,,,,,http://www.redfin.com/CA/El-Monte/3129-Washington-Ave-91731/home/8004665,,,N,Y,34.0653878,-118.0382767
PAST SALE,,Single Family Residential,3036 Lexington Ave,El Monte,CA,91731,136500,2,1.0,,1118,7252,1929,,122,,,,,http://www.redfin.com/CA/El-Monte/3036-Lexington-Ave-91731/home/8004678,,,N,Y,34.0639151,-118.0391073
PAST SALE,,Single Family Residential,3034 Lexington Ave,El Monte,CA,91731,135000,2,1.0,,1060,7370,1929,,127,,,,,http://www.redfin.com/CA/El-Monte/3034-Lexington-Ave-91731/home/8004679,,,N,Y,34.0637743,-118.039053
PAST SALE,,Single Family Residential,3030 Lexington Ave,El Monte,CA,91731,103000,2,1.0,,1040,7074,1929,,99,,,,,http://www.redfin.com/CA/El-Monte/3030-Lexington-Ave-91731/home/8004680,,,N,Y,34.0636553,-118.0390895
PAST SALE,,Single Family Residential,3048 Washington Ave,El Monte,CA,91731,122000,2,1.0,,915,7383,1939,,133,,,,,http://www.redfin.com/CA/El-Monte/3048-Washington-Ave-91731/home/8004693,,,N,Y,34.0642067,-118.0377894
PAST SALE,May-7-2009,Single Family Residential,3103 NEVADA Ave,El Monte,CA,91731,319000,3,2.0,619 - El Monte,1586,4748,1957,3006,201,,Sold,,,http://www.redfin.com/CA/El-Monte/3103-Nevada-Ave-91731/home/8004709,CRMLS,P680513,N,Y,34.064769,-118.037321
PAST SALE,,Single Family Residential,3223 Nevada Ave,El Monte,CA,91731,179000,2,1.0,,1267,6131,1928,,141,,,,,http://www.redfin.com/CA/El-Monte/3223-Nevada-Ave-91731/home/8004734,,,N,Y,34.0671136,-118.0372645
PAST SALE,,Single Family Residential,10100 Towneway Dr,El Monte,CA,91733,172000,3,2.0,,1218,5466,1956,,141,,,,,http://www.redfin.com/CA/El-Monte/10100-Towneway-Dr-91733/home/8004948,,,N,Y,34.0669698,-118.0496268
PAST SALE,October-12-2016,Single Family Residential,10012 Towneway Dr,El Monte,CA,91733,472000,3,2.0,619 - El Monte,1218,6524,1956,291,388,,Sold,,,http://www.redfin.com/CA/El-Monte/10012-Towneway-Dr-91733/home/8004951,CRMLS,PW16147984,N,Y,34.0664647,-118.0508996
PAST SALE,,Single Family Residential,3129 Friendswood Ave,El Monte,CA,91733,250000,3,2.0,,1189,9803,1942,,210,,,,,http://www.redfin.com/CA/El-Monte/3129-Friendswood-Ave-91733/home/8005298,,,N,Y,34.0647284,-118.0502628
PAST SALE,March-7-2012,Single Family Residential,10032 Rio Hondo,El Monte,CA,91733,369000,3,2.0,619 - El Monte,1500,11050,1950,1971,246,,Sold,,,http://www.redfin.com/CA/El-Monte/10032-Rio-Hondo-Pkwy-91733/home/8005303,CRMLS,A11090785,N,Y,34.0656445,-118.0502785
PAST SALE,July-17-2015,Multi-Family (2-4 Unit),10111 Bodger St,El Monte,CA,91733,410000,2,2.0,619 - El Monte,1030,5905,1944,744,398,,Sold,,,http://www.redfin.com/CA/El-Monte/10111-Bodger-St-91733/home/8005333,CRMLS,RS15112550,N,Y,34.0646688,-118.0489656
PAST SALE,November-17-2010,Single Family Residential,11532 FENNELL St,El Monte,CA,91732,310000,3,1.75,619 - El Monte,1340,5995,1947,2447,231,,Sold,,,http://www.redfin.com/CA/El-Monte/11532-Fennell-St-91732/home/7997074,CRMLS,R1006536,N,Y,34.0657715,-118.0260881
PAST SALE,,Single Family Residential,2054 Burkett Rd,El Monte,CA,91733,50000,2,1.0,,1472,20696,1938,,34,,,,,http://www.redfin.com/CA/El-Monte/2054-Burkett-Rd-91733/home/7799752,,,N,Y,34.0435978,-118.0247252
PAST SALE,,Condo/Co-op,11017 Brockway St,El Monte,CA,91731,399000,3,3.0,,1950,,2007,,205,,,,,http://www.redfin.com/CA/El-Monte/11017-Brockway-St-91731/home/17138839,,,N,Y,34.0686227,-118.0354684
PAST SALE,,Single Family Residential,2364 Peck Rd,El Monte,CA,91733,385000,2,1.0,,974,5430,1954,,395,,,,,http://www.redfin.com/CA/El-Monte/2364-Peck-Rd-91733/home/7796095,,,N,Y,34.0558222,-118.0302739
PAST SALE,March-25-2011,Single Family Residential,2825 Allgeyer Ave,El Monte,CA,91732,240000,2,1.0,619 - El Monte,984,7440,1952,2319,244,,Sold,,,http://www.redfin.com/CA/El-Monte/2825-Allgeyer-Ave-91732/home/7796191,CRMLS,I11024185,N,Y,34.059123,-118.0200324
PAST SALE,,Condo/Co-op,2972 Maxson Rd,El Monte,CA,91732,180000,3,3.0,,1592,,1991,,113,,,,,http://www.redfin.com/CA/El-Monte/2972-Maxson-Rd-91732/home/7796338,,,N,Y,34.0585044,-118.0155305
PAST SALE,,Single Family Residential,11223 Maryvine St,El Monte,CA,91733,126000,2,1.0,,698,4072,1945,,181,,,,,http://www.redfin.com/CA/El-Monte/11223-Maryvine-St-91733/home/7796587,,,N,Y,34.054046,-118.0308413
PAST SALE,January-14-2013,Single Family Residential,11953 BONWOOD Rd,El Monte,CA,91732,300900,2,1.5,619 - El Monte,1341,8399,1948,1658,224,,Sold,,,http://www.redfin.com/CA/El-Monte/11953-Bonwood-Rd-91732/home/7796597,CRMLS,P843899,N,Y,34.0543559,-118.0289782
PAST SALE,March-18-2015,Single Family Residential,2290 Peck Rd,El Monte,CA,91733,353000,2,1.0,699 - Not Defined,950,5371,1951,865,372,,Sold,,,http://www.redfin.com/CA/El-Monte/2290-Peck-Rd-91733/home/7796621,CRMLS,DW14243321,N,Y,34.0539444,-118.0301403
PAST SALE,May-31-2010,Single Family Residential,2322 COGSWELL Rd,El Monte,CA,91732,230000,3,1.0,619 - El Monte,990,6747,,2617,232,,Sold,,,http://www.redfin.com/CA/El-Monte/2322-Cogswell-Rd-91732/home/7796683,CRMLS,C10015027,N,Y,34.0537388,-118.0290709
PAST SALE,,Single Family Residential,12203 Redberry St,El Monte,CA,91732,136000,3,1.0,,962,6331,1951,,141,,,,,http://www.redfin.com/CA/El-Monte/12203-Redberry-St-91732/home/7796847,,,N,Y,34.050112,-118.0273191
PAST SALE,,Single Family Residential,12209 Redberry St,El Monte,CA,91732,140000,3,2.0,,1288,5787,1951,,109,,,,,http://www.redfin.com/CA/El-Monte/12209-Redberry-St-91732/home/7796848,,,N,Y,34.0500313,-118.0271778
PAST SALE,November-13-2012,Single Family Residential,2438 Cogswell Rd,El Monte,CA,91732,282000,3,1.0,619 - El Monte,1396,5769,1948,1720,202,,Sold,,,http://www.redfin.com/CA/El-Monte/2438-Cogswell-Rd-91732/home/7797058,CRMLS,A12124021,N,Y,34.055348,-118.0270449
PAST SALE,,Single Family Residential,2639 Parkway Dr,El Monte,CA,91732,154500,3,2.0,,1456,24211,1939,,106,,,,,http://www.redfin.com/CA/El-Monte/2639-Parkway-Dr-91732/home/7797790,,,N,Y,34.0501762,-118.0151143
PAST SALE,,Single Family Residential,12517 Elliott Ave,El Monte,CA,91732,220000,2,1.0,,1187,11049,1937,,185,,,,,http://www.redfin.com/CA/El-Monte/12517-Elliott-Ave-91732/home/7797806,,,N,Y,34.0500391,-118.0158761
PAST SALE,December-2-2009,Single Family Residential,12541 Poinsettia Ave,El Monte,CA,91732,330000,3,1.0,619 - El Monte,1451,5663,1935,2797,227,,Sold,,,http://www.redfin.com/CA/El-Monte/12541-Poinsettia-Ave-91732/home/7797843,CRMLS,C09106706,N,Y,34.051175,-118.0144815
PAST SALE,,Single Family Residential,12450 Denholm Dr,El Monte,CA,91732,125000,2,1.0,,817,5697,1959,,153,,,,,http://www.redfin.com/CA/El-Monte/12450-Denholm-Dr-91732/home/7797957,,,N,Y,34.0557472,-118.0126376
PAST SALE,August-12-2016,Single Family Residential,2706 Parkway Dr,El Monte,CA,91732,353000,3,1.0,619 - El Monte,1134,6154,1962,352,311,,Sold,,,http://www.redfin.com/CA/El-Monte/2706-Parkway-Dr-91732/home/7797992,CRMLS,OC15235266,N,Y,34.0506551,-118.0134922
PAST SALE,November-2-2012,Single Family Residential,12442 Rush St,South El Monte,CA,91733,230000,3,1.75,657 - So. El Monte,925,5732,1949,1731,249,,Sold,,,http://www.redfin.com/CA/El-Monte/12442-Rush-St-91733/home/7799603,CRISNet,F12087206,N,Y,34.0429398,-118.027184
PAST SALE,,Single Family Residential,2162 Amber Ave,El Monte,CA,91732,177000,3,2.0,,1724,5010,1966,,103,,,,,http://www.redfin.com/CA/El-Monte/2162-Amber-Ave-91732/home/7799730,,,N,Y,34.0432964,-118.0213407
PAST SALE,,Single Family Residential,12102 Sitka St,El Monte,CA,91732,305000,3,2.0,,1381,4972,1948,,221,,,,,http://www.redfin.com/CA/El-Monte/12102-Sitka-St-91732/home/7987327,,,N,Y,34.0679033,-118.0138588
PAST SALE,,Single Family Residential,12019 Clora Pl,El Monte,CA,91732,125000,2,2.0,,1206,8131,1960,,104,,,,,http://www.redfin.com/CA/El-Monte/12019-Clora-Pl-91732/home/7996769,,,N,Y,34.0652348,-118.0170046
PAST SALE,,Single Family Residential,12041 Clora Pl,El Monte,CA,91732,137000,2,1.0,,1087,7223,1954,,126,,,,,http://www.redfin.com/CA/El-Monte/12041-Clora-Pl-91732/home/7996779,,,N,Y,34.0650438,-118.0163595
PAST SALE,August-26-2015,Single Family Residential,11749 Lansdale Ave,El Monte,CA,91732,350000,2,1.0,619 - El Monte,995,11558,1936,704,352,,Sold,,,http://www.redfin.com/CA/El-Monte/11749-Lansdale-Ave-91732/home/7996801,CRMLS,IG15087659,N,Y,34.067195,-118.0220909
PAST SALE,,Single Family Residential,3108 Baseball Ave,El Monte,CA,91732,129000,3,2.0,,1209,8307,1947,,107,,,,,http://www.redfin.com/CA/El-Monte/3108-Baseball-Ave-91732/home/7996882,,,N,Y,34.063698,-118.0237558
PAST SALE,,Single Family Residential,3117 San Leon Dr,El Monte,CA,91732,121000,2,1.0,,887,7625,1940,,136,,,,,http://www.redfin.com/CA/El-Monte/3117-San-Leon-Dr-91732/home/7996978,,,N,Y,34.0650976,-118.0286714
PAST SALE,,Single Family Residential,3048 San Ignacio Dr,El Monte,CA,91732,260000,3,2.0,,1016,7424,1939,,256,,,,,http://www.redfin.com/CA/El-Monte/3048-San-Ignacio-Dr-91732/home/7997028,,,N,Y,34.0648617,-118.0267914
PAST SALE,,Single Family Residential,3031 Richwood Ave,El Monte,CA,91732,226000,2,1.0,,792,9363,1940,,285,,,,,http://www.redfin.com/CA/El-Monte/3031-Richwood-Ave-91732/home/7997035,,,N,Y,34.064143,-118.0267079
PAST SALE,December-4-2009,Single Family Residential,11923 Exline St,El Monte,CA,91732,230000,3,1.5,619 - El Monte,1128,5345,1960,2795,204,,Sold,,,http://www.redfin.com/CA/El-Monte/11923-Exline-St-91732/home/7997350,CRMLS,H09105613,N,Y,34.0670913,-118.0180095
PAST SALE,September-18-2009,Single Family Residential,2760 Parkway Dr,El Monte,CA,91732,238000,3,2.0,619 - El Monte,1080,6000,1947,2872,220,,Sold,,,http://www.redfin.com/CA/El-Monte/2760-Parkway-Dr-91732/home/7797982,CRMLS,M09050227,N,Y,34.052009,-118.013082
PAST SALE,,Single Family Residential,10721 Ranchito St,El Monte,CA,91731,70000,3,1.0,,1024,6042,1954,,68,,,,,http://www.redfin.com/CA/El-Monte/10721-Ranchito-St-91731/home/8002805,,,N,Y,34.0899474,-118.0346642
PAST SALE,,Single Family Residential,2515 Luder Ave,South El Monte,CA,91733,128000,3,1.0,,948,8301,1940,,135,,,,,http://www.redfin.com/CA/South-El-Monte/2515-Luder-Ave-91733/home/7794758,,,N,Y,34.0577914,-118.0461825
PAST SALE,,Single Family Residential,2127 Norema St,El Monte,CA,91733,114000,2,1.0,,899,7356,1951,,127,,,,,http://www.redfin.com/CA/El-Monte/2127-Norema-St-91733/home/7799912,,,N,Y,34.0505513,-118.0319436
PAST SALE,,Single Family Residential,12052 Schmidt Rd,El Monte,CA,91732,154000,2,1.0,,1206,5345,1948,,128,,,,,http://www.redfin.com/CA/El-Monte/12052-Schmidt-Rd-91732/home/7797049,,,N,Y,34.0544904,-118.0258334
PAST SALE,,Single Family Residential,10303 Rio Hondo Pkwy,El Monte,CA,91733,180000,2,1.0,,1233,12875,1944,,146,,,,,http://www.redfin.com/CA/El-Monte/10303-Rio-Hondo-Pkwy-91733/home/8004888,,,N,Y,34.0684906,-118.0473177
PAST SALE,,Single Family Residential,9652 Fern St,South El Monte,CA,91733,64000,3,1.0,,1112,5292,1954,,58,,,,,http://www.redfin.com/CA/South-El-Monte/9652-Fern-St-91733/home/7794424,,,N,Y,34.0589055,-118.0583277
PAST SALE,,Single Family Residential,2655 Doreen Ave,El Monte,CA,91733,280000,3,1.0,,1059,7511,1947,,264,,,,,http://www.redfin.com/CA/El-Monte/2655-Doreen-Ave-91733/home/7794694,,,N,Y,34.0605683,-118.0450441
PAST SALE,July-12-2013,Single Family Residential,2237 Cogswell Rd,El Monte,CA,91732,240000,3,2.0,619 - El Monte,1116,8135,1951,1479,215,,Sold,,,http://www.redfin.com/CA/El-Monte/2237-Cogswell-Rd-91732/home/7796633,CRMLS,CV13093891,N,Y,34.0516452,-118.0296238
PAST SALE,,Single Family Residential,2308 Allgeyer Ave,El Monte,CA,91732,135000,3,1.0,,1036,4926,1951,,130,,,,,http://www.redfin.com/CA/El-Monte/2308-Allgeyer-Ave-91732/home/7796767,,,N,Y,34.0525175,-118.0275858
PAST SALE,March-23-2012,Single Family Residential,12145 Maryvine St,El Monte,CA,91732,271800,3,1.0,619 - El Monte,1262,4927,1951,1955,215,,Sold,,,http://www.redfin.com/CA/El-Monte/12145-Maryvine-St-91732/home/7796797,CRMLS,A12015536,N,Y,34.0510924,-118.0271726
PAST SALE,December-23-2016,Single Family Residential,11320 Iris Ln,El Monte,CA,91731,457000,3,2.5,619 - El Monte,1505,2885,1996,219,304,,Sold,,,http://www.redfin.com/CA/El-Monte/11320-Iris-Ln-91731/home/7998320,CRMLS,PW16745319,N,Y,34.0736915,-118.0275315
PAST SALE,,Single Family Residential,3742 Gibson Rd,El Monte,CA,91731,145500,2,1.0,,792,6192,1925,,184,,,,,http://www.redfin.com/CA/El-Monte/3742-Gibson-Rd-91731/home/8003802,,,N,Y,34.0764304,-118.0509111
PAST SALE,March-13-2017,Single Family Residential,3916 Glen Way,El Monte,CA,91731,461500,3,2.0,619 - El Monte,1132,5411,1974,139,408,,Sold,,,http://www.redfin.com/CA/El-Monte/3916-Glen-Way-91731/home/7997812,CRMLS,PW17011160,N,Y,34.0790074,-118.0286388
PAST SALE,,Single Family Residential,2552 Sastre Ave,El Monte,CA,91733,112000,3,2.0,,1084,6211,1957,,103,,,,,http://www.redfin.com/CA/El-Monte/2552-Sastre-Ave-91733/home/7794252,,,N,Y,34.0587149,-118.0539827
PAST SALE,February-12-2009,Single Family Residential,2554 POTRERO Ave,El Monte,CA,91733,130000,2,1.0,619 - El Monte,957,5016,1947,3090,136,,Sold,,,http://www.redfin.com/CA/El-Monte/2554-Potrero-Ave-91733/home/7794260,CRMLS,B2104660,N,Y,34.0588068,-118.055092
PAST SALE,,Single Family Residential,2524 Sastre Ave,El Monte,CA,91733,123000,2,1.0,,810,8028,1947,,152,,,,,http://www.redfin.com/CA/El-Monte/2524-Sastre-Ave-91733/home/7794270,,,N,Y,34.0579715,-118.0539432
PAST SALE,,Single Family Residential,2420 Potrero Ave,El Monte,CA,91733,80200,1,1.0,,744,11994,1944,,108,,,,,http://www.redfin.com/CA/El-Monte/2420-Potrero-Ave-91733/home/7794310,,,N,Y,34.0560179,-118.0554584
PAST SALE,,Single Family Residential,2632 Delco Ave,El Monte,CA,91733,149500,3,1.0,,1057,7510,1947,,141,,,,,http://www.redfin.com/CA/El-Monte/2632-Delco-Ave-91733/home/7794624,,,N,Y,34.0596069,-118.0433695
PAST SALE,,Single Family Residential,2648 Luder Ave,El Monte,CA,91733,63000,3,2.0,,1518,7501,1946,,42,,,,,http://www.redfin.com/CA/El-Monte/2648-Luder-Ave-91733/home/7794690,,,N,Y,34.0605397,-118.0456075
PAST SALE,,Single Family Residential,2645 Luder Ave,El Monte,CA,91733,404000,3,1.0,,1080,7476,1946,,374,,,,,http://www.redfin.com/CA/El-Monte/2645-Luder-Ave-91733/home/7794728,,,N,Y,34.0604152,-118.0461213
PAST SALE,,Single Family Residential,2621 Luder Ave,El Monte,CA,91733,134000,3,1.0,,1080,8259,1946,,124,,,,,http://www.redfin.com/CA/El-Monte/2621-Luder-Ave-91733/home/7794732,,,N,Y,34.0597867,-118.0461392
PAST SALE,January-12-2011,Single Family Residential,10128 Maroon St,El Monte,CA,91733,310000,3,2.0,619 - El Monte,1074,5432,1956,2391,289,,Sold,,,http://www.redfin.com/CA/El-Monte/10128-Maroon-St-91733/home/7795102,CRMLS,C10122973,N,Y,34.0602004,-118.0477318
PAST SALE,,Single Family Residential,2741 Lexington Ave,El Monte,CA,91733,310000,5,4.0,,1606,6621,1928,,193,,,,,http://www.redfin.com/CA/El-Monte/2741-Lexington-Ave-91733/home/7795299,,,N,Y,34.0617583,-118.0394066
PAST SALE,,Single Family Residential,2408 Lorin Ave,El Monte,CA,91733,140000,3,2.0,,1256,5047,1961,,111,,,,,http://www.redfin.com/CA/El-Monte/2408-Lorin-Ave-91733/home/7795420,,,N,Y,34.0563565,-118.0391653
PAST SALE,,Condo/Co-op,2836 New Deal Ave Unit A,El Monte,CA,91733,269000,3,2.0,,1506,,1997,,179,,,,,http://www.redfin.com/CA/El-Monte/2836-New-Deal-Ave-91733/unit-A/home/7795643,,,N,Y,34.0618664,-118.0313763
PAST SALE,December-6-2013,Single Family Residential,2802 Musgrove Ave,El Monte,CA,91732,338000,2,1.75,619 - El Monte,1195,9209,1936,1332,283,,Sold,,,http://www.redfin.com/CA/El-Monte/2802-Musgrove-Ave-91732/home/7795669,CRMLS,AR13135866,N,Y,34.0614124,-118.027546
PAST SALE,,Single Family Residential,2617 Peck Rd,El Monte,CA,91733,113000,2,1.0,,624,2710,1941,,181,,,,,http://www.redfin.com/CA/El-Monte/2617-Peck-Rd-91733/home/7795833,,,N,Y,34.0591021,-118.0308341
PAST SALE,November-16-2016,Single Family Residential,11015 Elliott Ave,El Monte,CA,91733,415000,2,1.0,619 - El Monte,1273,5589,1946,256,326,,Sold,,,http://www.redfin.com/CA/El-Monte/11015-Elliott-Ave-91733/home/7795882,CRMLS,MB16159143,N,Y,34.0587802,-118.0350302
PAST SALE,,Single Family Residential,11316 Schmidt Rd,El Monte,CA,91733,118000,2,2.0,,1238,5409,1940,,95,,,,,http://www.redfin.com/CA/El-Monte/11316-Schmidt-Rd-91733/home/7795991,,,N,Y,34.0569641,-118.0298999
PAST SALE,,Condo/Co-op,11232 Schmidt Rd,El Monte,CA,91733,210000,3,3.0,,1912,,1993,,110,,,,,http://www.redfin.com/CA/El-Monte/11232-Schmidt-Rd-91733/home/7796010,,,N,Y,34.0570932,-118.0310885
PAST SALE,September-14-2012,Single Family Residential,12102 Magnolia St,El Monte,CA,91732,335000,3,3.0,619 - El Monte,1312,9239,1946,1780,255,,Sold,,,http://www.redfin.com/CA/El-Monte/12102-Magnolia-St-91732/home/7796434,CRMLS,A12067278,N,Y,34.0582264,-118.0206237
PAST SALE,,Single Family Residential,11948 Klingerman St,El Monte,CA,91732,214000,3,1.0,,1591,9085,1956,,135,,,,,http://www.redfin.com/CA/El-Monte/11948-Klingerman-St-91732/home/7796595,,,N,Y,34.0548,-118.028729
PAST SALE,,Single Family Residential,2328 Cogswell Rd,El Monte,CA,91732,127000,3,2.0,,1008,6704,1953,,126,,,,,http://www.redfin.com/CA/El-Monte/2328-Cogswell-Rd-91732/home/7796684,,,N,Y,34.0538315,-118.0289575
PAST SALE,March-1-2013,Single Family Residential,12212 Pineville St,El Monte,CA,91732,332900,3,1.75,619 - El Monte,1304,5281,1951,1612,255,,Sold,,,http://www.redfin.com/CA/El-Monte/12212-Pineville-St-91732/home/7796889,CRMLS,TR13007477,N,Y,34.0506799,-118.0261656
PAST SALE,October-6-2010,Single Family Residential,12221 Klingerman St,El Monte,CA,91732,205000,2,1.0,619 - El Monte,899,10271,1949,2489,228,,Sold,,,http://www.redfin.com/CA/El-Monte/12221-Klingerman-St-91732/home/7796911,CRMLS,C10050030,N,Y,34.0519353,-118.0241604
PAST SALE,,Single Family Residential,12238 Schmidt Rd,El Monte,CA,91732,125000,2,1.0,,520,7622,1932,,240,,,,,http://www.redfin.com/CA/El-Monte/12238-Schmidt-Rd-91732/home/7796909,,,N,Y,34.0519566,-118.0233709
PAST SALE,,Single Family Residential,2460 Maxson Rd,El Monte,CA,91732,130000,3,2.0,,1052,5752,1953,,124,,,,,http://www.redfin.com/CA/El-Monte/2460-Maxson-Rd-91732/home/7796924,,,N,Y,34.0531557,-118.0235201
PAST SALE,,Single Family Residential,2436 Leafdale Ave,El Monte,CA,91732,142000,2,1.0,,720,6840,1949,,197,,,,,http://www.redfin.com/CA/El-Monte/2436-Leafdale-Ave-91732/home/7796995,,,N,Y,34.0534149,-118.0247972
PAST SALE,March-23-2015,Single Family Residential,2413 Maxson Rd,El Monte,CA,91732,340000,2,1.0,619 - El Monte,720,6803,1949,860,472,,Sold,,,http://www.redfin.com/CA/El-Monte/2413-Maxson-Rd-91732/home/7797009,CRMLS,CV15002355,N,Y,34.0525578,-118.0249405
PAST SALE,,Single Family Residential,2457 Leafdale Ave,El Monte,CA,91732,66000,2,1.0,,720,6993,1949,,92,,,,,http://www.redfin.com/CA/El-Monte/2457-Leafdale-Ave-91732/home/7797024,,,N,Y,34.0541157,-118.0247065
PAST SALE,October-7-2010,Single Family Residential,2502 Cogswell Rd,El Monte,CA,91732,205000,2,1.0,619 - El Monte,720,5406,1949,2488,285,,Sold,,,http://www.redfin.com/CA/El-Monte/2502-Cogswell-Rd-91732/home/7797037,CRMLS,C10076036,N,Y,34.0556839,-118.0266937
PAST SALE,,Single Family Residential,2428 Cogswell Rd,El Monte,CA,91732,18500,2,2.0,,1472,5918,1948,,13,,,,,http://www.redfin.com/CA/El-Monte/2428-Cogswell-Rd-91732/home/7797060,,,N,Y,34.0551946,-118.0273278
PAST SALE,,Single Family Residential,2562 Parkway Dr,El Monte,CA,91732,137000,3,1.0,,1249,6906,1959,,110,,,,,http://www.redfin.com/CA/El-Monte/2562-Parkway-Dr-91732/home/7797171,,,N,Y,34.0486007,-118.0155008
PAST SALE,,Single Family Residential,2524 Burkett Rd,El Monte,CA,91732,68000,2,1.0,,1040,22016,1935,,65,,,,,http://www.redfin.com/CA/El-Monte/2524-Burkett-Rd-91732/home/7797256,,,N,Y,34.0492024,-118.0172556
PAST SALE,August-30-2010,Single Family Residential,2527 Parkway Dr,El Monte,CA,91732,315000,3,2.0,619 - El Monte,1472,9600,1946,2526,214,,Sold,,,http://www.redfin.com/CA/El-Monte/2527-Parkway-Dr-91732/home/7797267,CRMLS,C09130475,N,Y,34.0483645,-118.0168186
PAST SALE,,Single Family Residential,12433 Klingerman St,El Monte,CA,91732,132000,2,1.0,,1020,12556,1947,,129,,,,,http://www.redfin.com/CA/El-Monte/12433-Klingerman-St-91732/home/7797336,,,N,Y,34.048254,-118.0203036
PAST SALE,,Single Family Residential,12430 Magnolia St,El Monte,CA,91732,390000,3,2.0,,1412,4749,1961,,276,,,,,http://www.redfin.com/CA/El-Monte/12430-Magnolia-St-91732/home/7797854,,,N,Y,34.0532414,-118.0157218
PAST SALE,August-24-2009,Single Family Residential,2111 Maxson Rd,El Monte,CA,91733,330000,3,2.0,619 - El Monte,1419,5000,1951,2897,233,,Sold,,,http://www.redfin.com/CA/El-Monte/2111-Maxson-Rd-91733/home/7799832,CRMLS,C09028545,N,Y,34.0486519,-118.0297272
PAST SALE,,Single Family Residential,12154 Fineview St,El Monte,CA,91733,85000,2,1.0,,768,6763,1948,,111,,,,,http://www.redfin.com/CA/El-Monte/12154-Fineview-St-91733/home/7799864,,,N,Y,34.0502429,-118.0293812
PAST SALE,,Single Family Residential,3238 Tyler Ave,El Monte,CA,91731,235000,2,1.0,,1176,7673,1928,,200,,,,,http://www.redfin.com/CA/El-Monte/3238-Tyler-Ave-91731/home/7996905,,,N,Y,34.0674366,-118.0356785
PAST SALE,,Single Family Residential,3110 Lexington Ave,El Monte,CA,91731,179500,3,2.0,,1272,6123,1941,,141,,,,,http://www.redfin.com/CA/El-Monte/3110-Lexington-Ave-91731/home/8004658,,,N,Y,34.0648044,-118.038753
PAST SALE,,Single Family Residential,9765 Whitmore St,El Monte,CA,91733,160000,3,1.0,,1345,10821,1942,,119,,,,,http://www.redfin.com/CA/El-Monte/9765-Whitmore-St-91733/home/8005126,,,N,Y,34.0663014,-118.0564315
PAST SALE,,Condo/Co-op,3597 Daybreak St,El Monte,CA,91732,174000,3,3.0,,1433,,1987,,121,,,,,http://www.redfin.com/CA/El-Monte/3597-Daybreak-St-91732/home/7987897,,,N,Y,34.066665,-118.006744
PAST SALE,October-25-2008,Single Family Residential,12351 Ferris Rd,El Monte,CA,91732,328000,3,2.0,619 - El Monte,1429,5846,1953,3200,230,,Sold,,,http://www.redfin.com/CA/El-Monte/12351-Ferris-Rd-91732/home/7986770,CRMLS,C08086024,N,Y,34.0672685,-118.0077953
PAST SALE,December-23-2014,Single Family Residential,3356 Earlswood Dr,Rosemead,CA,91770,480000,3,1.0,651 - Rosemead/S. San Gabriel,1167,6753,1950,950,411,,Sold,,,http://www.redfin.com/CA/Rosemead/3356-Earlswood-Dr-91770/home/6994097,CRMLS,IG14209523,N,Y,34.0693552,-118.0735714
PAST SALE,,Condo/Co-op,2263 Burkett Rd,El Monte,CA,91732,190000,3,2.0,,1342,,1991,,142,,,,,http://www.redfin.com/CA/El-Monte/2263-Burkett-Rd-91732/home/7797524,,,N,Y,34.0469637,-118.0221427
PAST SALE,April-18-2012,Single Family Residential,12610 KLINGERMAN St,El Monte,CA,91732,280000,3,2.0,619 - El Monte,1098,5923,1961,1929,255,,Sold,,,http://www.redfin.com/CA/El-Monte/12610-Klingerman-St-91732/home/7797617,CRMLS,S685730,N,Y,34.0460964,-118.0184439
PAST SALE,,Single Family Residential,12602 Pineville St,El Monte,CA,91732,152000,3,2.0,,1372,5531,1961,,111,,,,,http://www.redfin.com/CA/El-Monte/12602-Pineville-St-91732/home/7797631,,,N,Y,34.0449776,-118.0195161
PAST SALE,July-8-2015,Single Family Residential,12649 Redberry St,El Monte,CA,91732,468000,3,2.0,619 - El Monte,1545,6040,1962,753,303,,Sold,,,http://www.redfin.com/CA/El-Monte/12649-Redberry-St-91732/home/7797662,CRMLS,TR15115629,N,Y,34.0433702,-118.0194934
PAST SALE,,Single Family Residential,2212 Amber Ave,El Monte,CA,91732,190000,3,2.0,,1572,5878,1980,,121,,,,,http://www.redfin.com/CA/El-Monte/2212-Amber-Ave-91732/home/7797683,,,N,Y,34.0437899,-118.0205374
PAST SALE,,Single Family Residential,1942 Burkett Rd,South El Monte,CA,91733,143000,2,1.0,,888,9649,1938,,161,,,,,http://www.redfin.com/CA/South-El-Monte/1942-Burkett-Rd-91733/home/7799640,,,N,Y,34.0419945,-118.0266696
PAST SALE,July-30-2010,Single Family Residential,2157 Amber Ave,El Monte,CA,91732,335000,3,2.0,619 - El Monte,1233,5397,1966,2557,272,,Sold,,,http://www.redfin.com/CA/El-Monte/2157-Amber-Ave-91732/home/7799727,CRMLS,C10057127,N,Y,34.0433414,-118.0219057
PAST SALE,,Condo/Co-op,2139 Parkway Dr,South El Monte,CA,91733,184000,3,3.0,,2448,,1990,,75,,,,,http://www.redfin.com/CA/South-El-Monte/2139-Parkway-Dr-91733/home/7799779,,,N,Y,34.0439636,-118.0231496
PAST SALE,,Single Family Residential,11571 Hallwood Dr,El Monte,CA,91732,138000,2,1.0,,1151,5133,1938,,120,,,,,http://www.redfin.com/CA/El-Monte/11571-Hallwood-Dr-91732/home/7979720,,,N,Y,34.0939229,-118.0139041
PAST SALE,November-16-2007,Single Family Residential,11563 HALLWOOD Dr,El Monte,CA,91732,420000,3,2.0,619 - El Monte,1167,8000,1960,3544,360,,Sold,,,http://www.redfin.com/CA/El-Monte/11563-Hallwood-Dr-91732/home/7979722,i-Tech MLS,22099852,N,Y,34.094133,-118.0141114
PAST SALE,April-28-2016,Single Family Residential,11561 Hallwood Dr,El Monte,CA,91732,335000,2,1.0,619 - El Monte,1212,7309,1939,458,276,,Sold,,,http://www.redfin.com/CA/El-Monte/11561-Hallwood-Dr-91732/home/7979721,CRMLS,AR16012127,N,Y,34.0939863,-118.0141935
PAST SALE,,Condo/Co-op,5037 1/2 Peck Rd,El Monte,CA,91732,215000,3,3.0,,1725,,1991,,125,,,,,http://www.redfin.com/CA/El-Monte/5037-1-2-Peck-Rd-91732/home/7979782,,,N,Y,34.094856,-118.013489
PAST SALE,July-21-2011,Single Family Residential,11827 Hemlock St,El Monte,CA,91732,240000,3,1.0,619 - El Monte,988,7706,1955,2201,243,,Sold,,,http://www.redfin.com/CA/El-Monte/11827-Hemlock-St-91732/home/7980236,CRMLS,T11005791,N,Y,34.0951875,-118.0067594
PAST SALE,,Single Family Residential,11811 Hemlock St,El Monte,CA,91732,152000,3,1.0,,1420,5672,1939,,107,,,,,http://www.redfin.com/CA/El-Monte/11811-Hemlock-St-91732/home/7980234,,,N,Y,34.0953604,-118.007131
PAST SALE,,Single Family Residential,11839 Cherrylee Dr,El Monte,CA,91732,150000,3,2.0,,1236,6298,1964,,121,,,,,http://www.redfin.com/CA/El-Monte/11839-Cherrylee-Dr-91732/home/7980285,,,N,Y,34.0943006,-118.0067076
PAST SALE,,Single Family Residential,11857 Cherrylee Dr,El Monte,CA,91732,200000,2,1.0,,1064,4012,1939,,188,,,,,http://www.redfin.com/CA/El-Monte/11857-Cherrylee-Dr-91732/home/7980283,,,N,Y,34.0939081,-118.0062313
PAST SALE,,Single Family Residential,5115 La Madera Ave,El Monte,CA,91732,160000,2,1.0,,949,7280,1939,,169,,,,,http://www.redfin.com/CA/El-Monte/5115-La-Madera-Ave-91732/home/7980308,,,N,Y,34.0941371,-118.0061374
PAST SALE,November-6-2012,Single Family Residential,5227 N Cogswell Rd,El Monte,CA,91732,345000,3,1.75,619 - El Monte,1610,6307,1962,1727,214,,Sold,,,http://www.redfin.com/CA/El-Monte/5227-Cogswell-Rd-91732/home/7980368,CRMLS,M12115423,N,Y,34.0949494,-118.0043335
PAST SALE,,Single Family Residential,5253 Cogswell Rd,El Monte,CA,91732,157000,3,1.0,,1122,7858,1962,,140,,,,,http://www.redfin.com/CA/El-Monte/5253-Cogswell-Rd-91732/home/7980377,,,N,Y,34.0953702,-118.0032549
PAST SALE,,Single Family Residential,12045 Celine St,El Monte,CA,91732,200000,3,2.0,,2148,13051,1957,,93,,,,,http://www.redfin.com/CA/El-Monte/12045-Celine-St-91732/home/7980565,,,N,Y,34.0950528,-118.0013857
PAST SALE,,Single Family Residential,12015 Ranchito St,El Monte,CA,91732,147500,3,2.0,,1704,7006,1964,,87,,,,,http://www.redfin.com/CA/El-Monte/12015-Ranchito-St-91732/home/7983182,,,N,Y,34.0864559,-118.0066528
PAST SALE,,Single Family Residential,12141 Ranchito St,El Monte,CA,91732,122000,3,2.0,,1166,5409,1962,,105,,,,,http://www.redfin.com/CA/El-Monte/12141-Ranchito-St-91732/home/7983208,,,N,Y,34.0856918,-118.0041456
PAST SALE,September-9-2011,Single Family Residential,4635 MAXSON Rd,El Monte,CA,91732,167000,1,1.0,619 - El Monte,540,6500,1952,2151,309,,Sold,,,http://www.redfin.com/CA/El-Monte/4635-Maxson-Rd-91732/home/7983251,i-Tech MLS,22152895,N,Y,34.0840801,-118.0043077
PAST SALE,April-21-2015,Single Family Residential,12120 Ranchito St,El Monte,CA,91732,450000,3,2.0,619 - El Monte,1428,5801,1964,831,315,,Sold,,,http://www.redfin.com/CA/El-Monte/12120-Ranchito-St-91732/home/7983265,CRISNet,SR14256462,N,Y,34.0852396,-118.0048189
PAST SALE,,Single Family Residential,12022 Ranchito St,El Monte,CA,91732,150000,3,1.0,,1372,6090,1935,,109,,,,,http://www.redfin.com/CA/El-Monte/12022-Ranchito-St-91732/home/7983286,,,N,Y,34.0857616,-118.006715
PAST SALE,May-30-2008,Single Family Residential,12132 Emery St,El Monte,CA,91732,285000,3,1.75,619 - El Monte,1210,6545,1939,3348,236,,Sold,,,http://www.redfin.com/CA/El-Monte/12132-Emery-St-91732/home/7983373,CRMLS,H07119306,N,Y,34.0831004,-118.0053997
PAST SALE,,Single Family Residential,12148 Killian St,El Monte,CA,91732,380000,3,2.0,,1625,7245,1953,,234,,,,,http://www.redfin.com/CA/El-Monte/12148-Killian-St-91732/home/7983396,,,N,Y,34.081463,-118.0055604
PAST SALE,,Single Family Residential,12132 Killian St,El Monte,CA,91732,162500,3,2.0,,1471,5967,1988,,110,,,,,http://www.redfin.com/CA/El-Monte/12132-Killian-St-91732/home/7983411,,,N,Y,34.081132,-118.0064611
PAST SALE,,Single Family Residential,12036 Killian St,El Monte,CA,91732,120000,2,1.0,,744,4939,1944,,161,,,,,http://www.redfin.com/CA/El-Monte/12036-Killian-St-91732/home/7983430,,,N,Y,34.0822414,-118.0079336
PAST SALE,,Single Family Residential,12024 Killian St,El Monte,CA,91732,165000,3,2.0,,1383,8128,1964,,119,,,,,http://www.redfin.com/CA/El-Monte/12024-Killian-St-91732/home/7983427,,,N,Y,34.0823249,-118.0082059
PAST SALE,April-9-2010,Single Family Residential,12048 Killian St,El Monte,CA,91732,296000,3,1.0,619 - El Monte,1134,6408,1962,2669,261,,Sold,,,http://www.redfin.com/CA/El-Monte/12048-Killian-St-91732/home/7983438,CRMLS,H10013664,N,Y,34.0819482,-118.0076296
PAST SALE,,Single Family Residential,4356 Maxson Rd,El Monte,CA,91732,438000,3,2.0,,1108,8815,1959,,395,,,,,http://www.redfin.com/CA/El-Monte/4356-Maxson-Rd-91732/home/7983713,,,N,Y,34.0795003,-118.0053928
PAST SALE,,Single Family Residential,4325 Bannister Ave,El Monte,CA,91732,292500,2,1.0,,870,9801,1937,,336,,,,,http://www.redfin.com/CA/El-Monte/4325-Bannister-Ave-91732/home/7983747,,,N,Y,34.0782112,-118.0029782
PAST SALE,,Single Family Residential,4740 Maxson Rd,El Monte,CA,91732,150000,3,2.0,,1185,9190,1964,,127,,,,,http://www.redfin.com/CA/El-Monte/4740-Maxson-Rd-91732/home/7983849,,,N,Y,34.0866238,-118.0031025
PAST SALE,,Single Family Residential,4749 Durfee Ave,El Monte,CA,91732,200000,3,2.0,,1892,9557,1948,,106,,,,,http://www.redfin.com/CA/El-Monte/4749-Durfee-Ave-91732/home/7983860,,,N,Y,34.08555,-118.002058
PAST SALE,February-17-2010,Single Family Residential,4761 Durfee Ave,El Monte,CA,91732,265000,3,2.0,El Monte,1200,9392,1952,2720,221,,Sold,,,http://www.redfin.com/CA/El-Monte/4761-Durfee-Ave-91732/home/7983858,TheMLS,09-399789,N,Y,34.0859089,-118.0019159
PAST SALE,,Single Family Residential,4702 Durfee Ave,El Monte,CA,91732,500000,3,2.0,,1655,15898,1953,,302,,,,,http://www.redfin.com/CA/El-Monte/4702-Durfee-Ave-91732/home/7983881,,,N,Y,34.0843151,-118.0014374
PAST SALE,March-19-2008,Single Family Residential,4747 Bannister Ave,El Monte,CA,91732,415000,3,1.75,619 - El Monte,1640,7928,1961,3420,253,,Sold,,,http://www.redfin.com/CA/El-Monte/4747-Bannister-Ave-91732/home/7983908,CRMLS,C08006282,N,Y,34.0852193,-118.000621
PAST SALE,,Single Family Residential,4921 Buffington Rd,El Monte,CA,91732,196000,3,3.0,,1781,9644,1947,,110,,,,,http://www.redfin.com/CA/El-Monte/4921-Buffington-Rd-91732/home/7985136,,,N,Y,34.0916226,-118.0096872
PAST SALE,,Single Family Residential,11626 Hallwood Dr,El Monte,CA,91732,183000,3,2.0,,1480,7058,1964,,124,,,,,http://www.redfin.com/CA/El-Monte/11626-Hallwood-Dr-91732/home/7985158,,,N,Y,34.0928477,-118.0123759
PAST SALE,February-2-2009,Single Family Residential,11741 Roseglen St,El Monte,CA,91732,294900,3,2.0,619 - El Monte,1221,5250,1962,3100,242,,Sold,,,http://www.redfin.com/CA/El-Monte/11741-Roseglen-St-91732/home/7985167,CRMLS,C08174639,N,Y,34.0918476,-118.0101206
PAST SALE,,Single Family Residential,4912 Buffington Rd,El Monte,CA,91732,380000,3,2.0,,1648,6280,1940,,231,,,,,http://www.redfin.com/CA/El-Monte/4912-Buffington-Rd-91732/home/7985193,,,N,Y,34.0912425,-118.0093403
PAST SALE,,Single Family Residential,12119 Hallwood Dr,El Monte,CA,91732,138500,3,2.0,,1166,6204,1962,,119,,,,,http://www.redfin.com/CA/El-Monte/12119-Hallwood-Dr-91732/home/7985322,,,N,Y,34.09053,-118.0021126
PAST SALE,August-19-2015,Single Family Residential,12126 Hallwood Dr,El Monte,CA,91732,420000,3,2.0,619 - El Monte,1172,6330,1960,711,358,,Sold,,,http://www.redfin.com/CA/El-Monte/12126-Hallwood-Dr-91732/home/7985349,CRMLS,IV15103563,N,Y,34.0896536,-118.0022916
PAST SALE,March-23-2009,Single Family Residential,,El Monte,CA,91732,310000,3,2.0,619 - El Monte,1519,6000,1964,3051,204,,Sold,,,http://www.redfin.com/CA/El-Monte/Undisclosed-address-91732/home/7985372,CRMLS,B2102937,N,Y,34.089716,-118.0029597
PAST SALE,,Single Family Residential,12102 Hallwood Dr,El Monte,CA,91732,144000,3,2.0,,1519,6021,1964,,95,,,,,http://www.redfin.com/CA/El-Monte/12102-Hallwood-Dr-91732/home/7985373,,,N,Y,34.0895473,-118.0030173
PAST SALE,,Single Family Residential,12103 Roseglen St,El Monte,CA,91732,125000,2,1.0,,1152,6436,1937,,109,,,,,http://www.redfin.com/CA/El-Monte/12103-Roseglen-St-91732/home/7985376,,,N,Y,34.0891436,-118.0036645
PAST SALE,,Single Family Residential,12101 Roseglen St,El Monte,CA,91732,128000,2,1.0,,942,6050,1957,,136,,,,,http://www.redfin.com/CA/El-Monte/12101-Roseglen-St-91732/home/7985377,,,N,Y,34.0890205,-118.0037808
PAST SALE,February-3-2016,Single Family Residential,4802 Cogswell Rd,El Monte,CA,91732,430000,3,1.5,619 - El Monte,1484,6256,1951,543,290,,Sold,,,http://www.redfin.com/CA/El-Monte/4802-Cogswell-Rd-91732/home/7985392,CRMLS,TR15266853,N,Y,34.0879615,-118.0061793
PAST SALE,,Single Family Residential,12054 Roseglen St,El Monte,CA,91732,250000,3,2.0,,1146,5446,1962,,218,,,,,http://www.redfin.com/CA/El-Monte/12054-Roseglen-St-91732/home/7985420,,,N,Y,34.0882223,-118.0043879
PAST SALE,May-15-2010,Single Family Residential,12134 ROSEGLEN St,El Monte,CA,91732,280000,2,1.5,619 - El Monte,1054,5040,1960,2633,266,,Sold,,,http://www.redfin.com/CA/El-Monte/12134-Roseglen-St-91732/home/7985425,CRMLS,R907042,N,Y,34.0880937,-118.0030351
PAST SALE,February-11-2014,Single Family Residential,12044 Roseglen St,El Monte,CA,91732,325000,3,1.5,619 - El Monte,1089,5994,1963,1265,298,,Sold,,,http://www.redfin.com/CA/El-Monte/12044-Roseglen-St-91732/home/7985427,CRMLS,CV13220515,N,Y,34.0885246,-118.0044756
PAST SALE,,Single Family Residential,11929 Lower Azusa Rd,El Monte,CA,91732,176000,2,1.0,,1020,17789,1950,,173,,,,,http://www.redfin.com/CA/El-Monte/11929-Lower-Azusa-Rd-91732/home/7985450,,,N,Y,34.0886392,-118.0078743
PAST SALE,,Single Family Residential,11924 Roseglen St,El Monte,CA,91732,166500,1,1.0,,948,9759,1944,,176,,,,,http://www.redfin.com/CA/El-Monte/11924-Roseglen-St-91732/home/7985460,,,N,Y,34.0896592,-118.0071216
PAST SALE,,Single Family Residential,4847 La Madera Ave,El Monte,CA,91732,270000,3,2.0,,2104,19385,1934,,128,,,,,http://www.redfin.com/CA/El-Monte/4847-La-Madera-Ave-91732/home/7985468,,,N,Y,34.0899466,-118.0083014
PAST SALE,December-5-2007,Single Family Residential,4823 La Madera Ave,El Monte,CA,91732,345000,2,1.0,619 - El Monte,864,5771,1951,3525,399,,Sold,,,http://www.redfin.com/CA/El-Monte/4823-La-Madera-Ave-91732/home/7985470,CRMLS,A07154303,N,Y,34.0892706,-118.0085916
PAST SALE,,Single Family Residential,11838 Roseglen St,El Monte,CA,91732,142000,3,2.0,,1348,6335,1964,,105,,,,,http://www.redfin.com/CA/El-Monte/11838-Roseglen-St-91732/home/7985478,,,N,Y,34.089997,-118.0086945
PAST SALE,,Single Family Residential,11812 Roseglen St,El Monte,CA,91732,140000,3,2.0,,1700,11385,1934,,82,,,,,http://www.redfin.com/CA/El-Monte/11812-Roseglen-St-91732/home/7985480,,,N,Y,34.0905021,-118.0094301
PAST SALE,,Single Family Residential,11820 Roseglen St,El Monte,CA,91732,160500,3,2.0,,1381,6245,1961,,116,,,,,http://www.redfin.com/CA/El-Monte/11820-Roseglen-St-91732/home/7985484,,,N,Y,34.090075,-118.009422
PAST SALE,,Single Family Residential,4824 Dyson Ave,El Monte,CA,91732,148000,3,2.0,,1187,5086,1961,,125,,,,,http://www.redfin.com/CA/El-Monte/4824-Dyson-Ave-91732/home/7985520,,,N,Y,34.0905278,-118.0117228
PAST SALE,,Single Family Residential,4815 Dyson Ave,El Monte,CA,91732,192000,3,2.0,,1227,5030,1961,,156,,,,,http://www.redfin.com/CA/El-Monte/4815-Dyson-Ave-91732/home/7985536,,,N,Y,34.0903886,-118.0122309
PAST SALE,July-5-2008,Single Family Residential,4831 Dyson Ave,El Monte,CA,91732,340000,3,1.5,619 - El Monte,1227,5171,1961,3312,277,,Sold,,,http://www.redfin.com/CA/El-Monte/4831-Dyson-Ave-91732/home/7985539,CRMLS,K08068628,N,Y,34.0908042,-118.0120485
PAST SALE,August-5-2008,Single Family Residential,11635 Ranchito St,El Monte,CA,91732,257000,3,2.0,619 - El Monte,1186,6195,1966,3281,217,,Sold,,,http://www.redfin.com/CA/El-Monte/11635-Ranchito-St-91732/home/7985557,CRMLS,A08092459,N,Y,34.0890571,-118.0140227
PAST SALE,,Single Family Residential,11804 Lower Azusa Rd,El Monte,CA,91732,285000,3,2.0,,1381,7478,1961,,206,,,,,http://www.redfin.com/CA/El-Monte/11804-Lower-Azusa-Rd-91732/home/7985597,,,N,Y,34.0886894,-118.0108176
PAST SALE,June-19-2009,Single Family Residential,11802 Lower Azusa Road Rd,El Monte,CA,91732,263200,3,2.0,619 - El Monte,1381,7350,1961,2963,191,,Sold,,,http://www.redfin.com/CA/El-Monte/11802-Lower-Azusa-Rd-91732/home/7985599,CRMLS,H09042016,N,Y,34.0888521,-118.0107363
PAST SALE,July-6-2005,Single Family Residential,11929 RANCHITO St,El Monte,CA,91732,478000,3,,619 - El Monte,1271,10500,1960,4407,376,,Sold,,,http://www.redfin.com/CA/El-Monte/11929-Ranchito-St-91732/home/7985652,CRMLS,R52472,N,Y,34.0866099,-118.0077557
PAST SALE,,Single Family Residential,11927 Ranchito St,El Monte,CA,91732,117000,2,1.0,,1091,7145,1947,,107,,,,,http://www.redfin.com/CA/El-Monte/11927-Ranchito-St-91732/home/7985653,,,N,Y,34.0868482,-118.0076945
PAST SALE,,Single Family Residential,11934 Lower Azusa Rd,El Monte,CA,91732,148000,3,2.0,,1201,6402,1963,,123,,,,,http://www.redfin.com/CA/El-Monte/11934-Lower-Azusa-Rd-91732/home/7985660,,,N,Y,34.087811,-118.0079832
PAST SALE,,Single Family Residential,4557 La Madera Ave,El Monte,CA,91732,133000,3,1.0,,1016,7944,1959,,131,,,,,http://www.redfin.com/CA/El-Monte/4557-La-Madera-Ave-91732/home/7985686,,,N,Y,34.0855369,-118.0117233
PAST SALE,February-19-2014,Single Family Residential,11721 Killian St,El Monte,CA,91732,430000,1,1.0,619 - El Monte,822,13659,1939,1257,523,,Sold,,,http://www.redfin.com/CA/El-Monte/11721-Killian-St-91732/home/7985724,CRMLS,CV14017827,N,Y,34.0845592,-118.0133191
PAST SALE,,Single Family Residential,11666 Ranchito St,El Monte,CA,91732,110000,3,2.0,,1158,5962,1964,,95,,,,,http://www.redfin.com/CA/El-Monte/11666-Ranchito-St-91732/home/7985859,,,N,Y,34.0877161,-118.0134821
PAST SALE,May-22-2012,Single Family Residential,11664 Ranchito St,El Monte,CA,91732,300000,3,2.0,619 - El Monte,1158,5300,1964,1895,259,,Sold,,,http://www.redfin.com/CA/El-Monte/11664-Ranchito-St-91732/home/7985861,CRMLS,B12038225,N,Y,34.0878462,-118.0133758
PAST SALE,,Single Family Residential,11812 Mc Girk Ave,El Monte,CA,91732,145000,3,2.0,,1420,5159,1947,,102,,,,,http://www.redfin.com/CA/El-Monte/11812-Mc-Girk-Ave-91732/home/7986091,,,N,Y,34.0818272,-118.0123819
PAST SALE,,Single Family Residential,4313 Cogswell Rd,El Monte,CA,91732,145000,3,2.0,,1168,8649,1961,,124,,,,,http://www.redfin.com/CA/El-Monte/4313-Cogswell-Rd-91732/home/7986107,,,N,Y,34.0801405,-118.0109125
PAST SALE,,Single Family Residential,4311 Cogswell Rd,El Monte,CA,91732,180000,3,2.0,,1168,6517,1961,,154,,,,,http://www.redfin.com/CA/El-Monte/4311-Cogswell-Rd-91732/home/7986106,,,N,Y,34.0801951,-118.0111175
PAST SALE,September-15-2006,Single Family Residential,11923 BASYE St,El Monte,CA,91732,460000,3,,619 - El Monte,1140,6300,1947,3971,404,,Sold,,,http://www.redfin.com/CA/El-Monte/11923-Basye-St-91732/home/7986137,CRMLS,P516356,N,Y,34.0784624,-118.0121521
PAST SALE,,Single Family Residential,11822 Lambert Ave,El Monte,CA,91732,160500,3,2.0,,1200,5304,1962,,134,,,,,http://www.redfin.com/CA/El-Monte/11822-Lambert-Ave-91732/home/7986152,,,N,Y,34.079493,-118.013257
PAST SALE,January-10-2005,Single Family Residential,11802 LAMBERT Ave,El Monte,CA,91732,450000,2,,619 - El Monte,1554,11356,1945,4584,290,,Sold,,,http://www.redfin.com/CA/El-Monte/11802-Lambert-Ave-91732/home/7986154,CRMLS,P403194,N,Y,34.0802906,-118.013599
PAST SALE,June-8-2015,Single Family Residential,11848 Basye St,El Monte,CA,91732,370000,3,2.0,619 - El Monte,1269,6085,1961,783,292,,Sold,,,http://www.redfin.com/CA/El-Monte/11848-Basye-St-91732/home/7986187,CRMLS,CV15082164,N,Y,34.0780303,-118.0133788
PAST SALE,,Single Family Residential,11827 Kerrwood St,El Monte,CA,91732,150000,2,1.0,,1020,6630,1957,,147,,,,,http://www.redfin.com/CA/El-Monte/11827-Kerrwood-St-91732/home/7986226,,,N,Y,34.0781134,-118.0141057
PAST SALE,,Single Family Residential,11828 Basye St,El Monte,CA,91732,125000,3,2.0,,1170,4253,1962,,107,,,,,http://www.redfin.com/CA/El-Monte/11828-Basye-St-91732/home/8090913,,,N,Y,34.0781933,-118.0139065
PAST SALE,,Condo/Co-op,5007 Peck Rd Apt F,El Monte,CA,91732,383000,3,3.0,,1300,,1986,,295,,,,,http://www.redfin.com/CA/El-Monte/5007-Peck-Rd-91732/unit-F/home/8183724,,,N,Y,34.0941043,-118.0134934
PAST SALE,October-20-2016,Condo/Co-op,5007 Peck Rd Unit A,El Monte,CA,91732,375000,3,2.5,619 - El Monte,1320,,1986,283,284,200,Sold,,,http://www.redfin.com/CA/El-Monte/5007-Peck-Rd-91732/unit-A/home/8184400,CRMLS,TR16124944,N,Y,34.0941043,-118.0134934
PAST SALE,December-28-2016,Single Family Residential,4331 Maxson Rd,El Monte,CA,91732,400000,3,2.0,619 - El Monte,1240,4799,1963,214,323,,Sold,,,http://www.redfin.com/CA/El-Monte/4331-Maxson-Rd-91732/home/7983484,CRMLS,DW16749516,N,Y,34.0792889,-118.0068571
PAST SALE,December-5-2008,Single Family Residential,11646 HALLWOOD Dr,El Monte,CA,91732,468000,3,2.0,619 - El Monte,1440,8086,2008,3159,325,120,Sold,,,http://www.redfin.com/CA/El-Monte/11646-Hallwood-Dr-91732/home/21916633,CRMLS,A08105646,N,Y,34.0926898,-118.0120246
PAST SALE,,Vacant Land,3645 El Monte Ave,El Monte,CA,91731,118000,2,1.0,,1032,7874,1903,,114,,,,,http://www.redfin.com/CA/El-Monte/3645-El-Monte-Ave-91731/home/8002272,,,N,Y,34.0763024,-118.0370766
PAST SALE,January-13-2017,Single Family Residential,3815 Cypress Ave,El Monte,CA,91731,461750,3,1.0,619 - El Monte,1816,5221,1945,198,254,,Sold,,,http://www.redfin.com/CA/El-Monte/3815-Cypress-Ave-91731/home/7997831,CRMLS,MB16723294,N,Y,34.0775196,-118.0290182
PAST SALE,,Condo/Co-op,10929 Iris Ln,El Monte,CA,91731,206000,3,3.0,,1451,,2002,,142,,,,,http://www.redfin.com/CA/El-Monte/10929-Iris-Ln-91731/home/8122000,,,N,Y,34.0729512,-118.037557
PAST SALE,April-1-2014,Townhouse,3678 Amistad Ln,El Monte,CA,91731,352000,3,2.5,619 - El Monte,1640,94101,2005,1216,215,232,Sold,,,http://www.redfin.com/CA/El-Monte/3678-Amistad-Ln-91731/home/17238211,CRISNet,SR14022319,N,Y,34.0757123,-118.0340711
PAST SALE,October-21-2011,Single Family Residential,4166 N COGSWELL Rd,El Monte,CA,91732,340000,3,1.0,619 - El Monte,1200,15451,1948,2109,283,,Sold,,,http://www.redfin.com/CA/El-Monte/4166-Cogswell-Rd-91732/home/7983532,CRMLS,C11096846,N,Y,34.0775597,-118.0110745
PAST SALE,,Single Family Residential,4134 Cogswell Rd,El Monte,CA,91732,130000,2,1.0,,903,8780,1953,,144,,,,,http://www.redfin.com/CA/El-Monte/4134-Cogswell-Rd-91732/home/7983546,,,N,Y,34.0767812,-118.011689
PAST SALE,June-15-2012,Single Family Residential,4224 Maxson Rd,El Monte,CA,91732,260000,2,1.0,619 - El Monte,966,11098,1949,1871,269,,Sold,,,http://www.redfin.com/CA/El-Monte/4224-Maxson-Rd-91732/home/7983646,CRMLS,C12027280,N,Y,34.0765105,-118.0071052
PAST SALE,February-17-2010,Single Family Residential,4254 MAXSON Rd,El Monte,CA,91732,305000,3,1.5,619 - El Monte,1156,5100,1962,2720,264,,Sold,,,http://www.redfin.com/CA/El-Monte/4254-Maxson-Rd-91732/home/7983660,CRMLS,P715731,N,Y,34.0769586,-118.0054841
PAST SALE,,Single Family Residential,12223 Lambert Ave,El Monte,CA,91732,214500,3,1.0,,1396,14910,1940,,154,,,,,http://www.redfin.com/CA/El-Monte/12223-Lambert-Ave-91732/home/7983720,,,N,Y,34.0780777,-118.0057212
PAST SALE,,Single Family Residential,4302 Maxson Rd,El Monte,CA,91732,175000,2,2.0,,1481,9489,1931,,118,,,,,http://www.redfin.com/CA/El-Monte/4302-Maxson-Rd-91732/home/7983731,,,N,Y,34.0781314,-118.0062236
PAST SALE,,Single Family Residential,4115 Whistler Ave,El Monte,CA,91732,280000,3,1.0,,960,7632,1945,,292,,,,,http://www.redfin.com/CA/El-Monte/4115-Whistler-Ave-91732/home/7986216,,,N,Y,34.0770229,-118.014146
PAST SALE,,Single Family Residential,4138 La Madera Ave,El Monte,CA,91732,126000,3,2.0,,1236,6105,1964,,102,,,,,http://www.redfin.com/CA/El-Monte/4138-La-Madera-Ave-91732/home/7986240,,,N,Y,34.0780372,-118.0150169
PAST SALE,,Single Family Residential,4124 La Madera Ave,El Monte,CA,91732,145000,3,2.0,,1125,5045,1967,,129,,,,,http://www.redfin.com/CA/El-Monte/4124-La-Madera-Ave-91732/home/7986251,,,N,Y,34.0774297,-118.0146488
PAST SALE,,Single Family Residential,11648 Bryant Rd,El Monte,CA,91732,126000,2,1.0,,743,6986,1938,,170,,,,,http://www.redfin.com/CA/El-Monte/11648-Bryant-Rd-91732/home/7986436,,,N,Y,34.0778446,-118.0190267
PAST SALE,,Single Family Residential,4047 Richwood Ave,El Monte,CA,91732,125000,2,2.0,,1319,6905,1948,,95,,,,,http://www.redfin.com/CA/El-Monte/4047-Richwood-Ave-91732/home/7986443,,,N,Y,34.077215,-118.0181177
PAST SALE,May-13-2016,Single Family Residential,11777 Forest Grove St,El Monte,CA,91732,446000,2,2.0,619 - El Monte,1589,5935,1964,443,281,,Sold,,,http://www.redfin.com/CA/El-Monte/11777-Forest-Grove-St-91732/home/7986462,CRMLS,PW16073198,N,Y,34.0765394,-118.0162489
PAST SALE,October-1-2012,Single Family Residential,4012 RICHWOOD Ave,El Monte,CA,91732,379000,3,2.0,619 - El Monte,1661,15730,1936,1763,228,,Sold,,,http://www.redfin.com/CA/El-Monte/4012-Richwood-Ave-91732/home/7986469,CRMLS,P830585,N,Y,34.0761847,-118.0180534
PAST SALE,,Single Family Residential,11634 Woodville Dr,El Monte,CA,91732,183000,3,2.0,,1493,12127,1977,,123,,,,,http://www.redfin.com/CA/El-Monte/11634-Woodville-Dr-91732/home/7986494,,,N,Y,34.077276,-118.0198234
PAST SALE,,Condo/Co-op,4013 Richwood Ave,El Monte,CA,91732,250000,3,3.0,,1626,,1990,,154,,,,,http://www.redfin.com/CA/El-Monte/4013-Richwood-Ave-91732/home/7986498,,,N,Y,34.0763036,-118.018794
PAST SALE,,Condo/Co-op,4017 Richwood Ave,El Monte,CA,91732,257000,3,3.0,,1626,,1990,,158,,,,,http://www.redfin.com/CA/El-Monte/4017-Richwood-Ave-91732/home/7986499,,,N,Y,34.0765485,-118.0188428
PAST SALE,,Single Family Residential,4003 Whistler Ave,El Monte,CA,91732,120000,3,2.0,,1293,6620,1965,,93,,,,,http://www.redfin.com/CA/El-Monte/4003-Whistler-Ave-91732/home/7986552,,,N,Y,34.0756722,-118.0152765
PAST SALE,,Single Family Residential,4139 Bannister Ave,El Monte,CA,91732,105227,3,2.0,,1120,8569,1946,,94,,,,,http://www.redfin.com/CA/El-Monte/4139-Bannister-Ave-91732/home/7986665,,,N,Y,34.0751416,-118.0046595
PAST SALE,,Condo/Co-op,12301 Deana St,El Monte,CA,91732,40000,3,3.0,,1466,,1990,,27,,,,,http://www.redfin.com/CA/El-Monte/12301-Deana-St-91732/home/7986718,,,N,Y,34.0701481,-118.0076164
PAST SALE,,Condo/Co-op,12307 Deana St,El Monte,CA,91732,203818,3,3.0,,1752,,1990,,116,,,,,http://www.redfin.com/CA/El-Monte/12307-Deana-St-91732/home/7986721,,,N,Y,34.0704309,-118.0074731
PAST SALE,,Single Family Residential,12320 Deana St,El Monte,CA,91732,140000,2,2.0,,1258,5048,1965,,111,,,,,http://www.redfin.com/CA/El-Monte/12320-Deana-St-91732/home/7986754,,,N,Y,34.0694535,-118.0077009
PAST SALE,,Single Family Residential,3911 Durfee Ave,El Monte,CA,91732,220000,3,2.0,,1170,5222,1962,,188,,,,,http://www.redfin.com/CA/El-Monte/3911-Durfee-Ave-91732/home/7987020,,,N,Y,34.0720111,-118.0078357
PAST SALE,,Condo/Co-op,4021 Durfee Ave Apt C,El Monte,CA,91732,140000,3,3.0,,1350,,1991,,104,,,,,http://www.redfin.com/CA/El-Monte/4021-Durfee-Ave-91732/unit-C/home/7987135,,,N,Y,34.0733,-118.0068365
PAST SALE,,Condo/Co-op,4021 Maxson Rd,El Monte,CA,91732,133000,3,2.0,,1631,,1991,,82,,,,,http://www.redfin.com/CA/El-Monte/4021-Maxson-Rd-91732/home/7987203,,,N,Y,34.0741317,-118.0094705
PAST SALE,January-12-2010,Single Family Residential,3922 Penn Mar Ave,El Monte,CA,91732,267300,3,1.0,619 - El Monte,1134,5100,1961,2756,236,,Sold,,,http://www.redfin.com/CA/El-Monte/3922-Penn-Mar-Ave-91732/home/7987211,CRMLS,C09113004,N,Y,34.0733133,-118.0102581
PAST SALE,,Single Family Residential,4105 Harnett Ave,El Monte,CA,91732,154500,3,2.0,,1144,6326,1959,,135,,,,,http://www.redfin.com/CA/El-Monte/4105-Harnett-Ave-91732/home/7987577,,,N,Y,34.0736056,-118.0030617
PAST SALE,,Condo/Co-op,3805 Muirfield St,El Monte,CA,91732,215000,3,3.0,,1717,,1988,,125,,,,,http://www.redfin.com/CA/El-Monte/3805-Muirfield-St-91732/home/7987639,,,N,Y,34.0697067,-118.0057475
PAST SALE,,Condo/Co-op,3807 Oakhurst St,El Monte,CA,91732,152000,3,3.0,,1717,,1988,,89,,,,,http://www.redfin.com/CA/El-Monte/3807-Oakhurst-St-91732/home/7987669,,,N,Y,34.0694191,-118.0049415
PAST SALE,,Condo/Co-op,12513 Montrose St,El Monte,CA,91732,178000,3,3.0,,1621,,1988,,110,,,,,http://www.redfin.com/CA/El-Monte/12513-Montrose-St-91732/home/7987677,,,N,Y,34.0702421,-118.0050653
PAST SALE,,Single Family Residential,11817 Liscomb St,El Monte,CA,91732,146500,3,2.0,,1367,6686,1958,,107,,,,,http://www.redfin.com/CA/El-Monte/11817-Liscomb-St-91732/home/7997114,,,N,Y,34.074276,-118.0165179
PAST SALE,,Single Family Residential,11431 Lee Ln,El Monte,CA,91731,40000,2,1.0,,948,8103,1929,,42,,,,,http://www.redfin.com/CA/El-Monte/11431-Lee-Ln-91731/home/7997640,,,N,Y,34.0729633,-118.0260179
PAST SALE,,Single Family Residential,3905 Pine Ave,El Monte,CA,91731,175000,2,1.0,,720,6017,1939,,243,,,,,http://www.redfin.com/CA/El-Monte/3905-Pine-Ave-91731/home/7997915,,,N,Y,34.0780768,-118.0253743
PAST SALE,,Single Family Residential,3732 Tyler Ave,El Monte,CA,91731,150000,3,2.0,,1990,9830,1938,,75,,,,,http://www.redfin.com/CA/El-Monte/3732-Tyler-Ave-91731/home/7998273,,,N,Y,34.0777113,-118.0333335
PAST SALE,,Single Family Residential,11054 Kauffman St,El Monte,CA,91731,130000,2,2.0,,1014,7882,1947,,128,,,,,http://www.redfin.com/CA/El-Monte/11054-Kauffman-St-91731/home/7998279,,,N,Y,34.0757394,-118.0328524
PAST SALE,April-30-2012,Single Family Residential,11100 Kauffman St,El Monte,CA,91731,283000,3,1.0,619 - El Monte,1344,8025,1921,1917,211,,Sold,,,http://www.redfin.com/CA/El-Monte/11100-Kauffman-St-91731/home/7998281,CRMLS,A11140196,N,Y,34.0755343,-118.0326035
PAST SALE,,Single Family Residential,11334 Coffield Ave,El Monte,CA,91731,125000,3,3.0,,1640,3040,1996,,76,,,,,http://www.redfin.com/CA/El-Monte/11334-Coffield-Ave-91731/home/7998312,,,N,Y,34.0742553,-118.027114
PAST SALE,January-28-2013,Single Family Residential,3825 VELMA Ave,El Monte,CA,91731,230000,2,1.0,619 - El Monte,771,8472,1924,1644,298,,Sold,,,http://www.redfin.com/CA/El-Monte/3825-Velma-Ave-91731/home/8003512,CRMLS,S708799,N,Y,34.0780269,-118.0484972
PAST SALE,,Single Family Residential,3748 Gibson Rd,El Monte,CA,91731,121500,2,1.0,,746,6019,1925,,163,,,,,http://www.redfin.com/CA/El-Monte/3748-Gibson-Rd-91731/home/8003801,,,N,Y,34.076552,-118.0508219
PAST SALE,April-9-2014,Single Family Residential,3809 Rockwell Ave,El Monte,CA,91731,342000,2,1.0,619 - El Monte,1020,5989,1929,1208,335,,Sold,,,http://www.redfin.com/CA/El-Monte/3809-Rockwell-Ave-91731/home/8003818,CRMLS,CV14011198,N,Y,34.076744,-118.0503523
PAST SALE,,Single Family Residential,10203 Ralph St,El Monte,CA,91731,111000,1,1.0,,816,8072,1945,,136,,,,,http://www.redfin.com/CA/El-Monte/10203-Ralph-St-91731/home/8003856,,,N,Y,34.0754643,-118.048572
PAST SALE,April-15-2016,Single Family Residential,10210 Ralph,El Monte,CA,91731,370000,2,0.75,619 - El Monte,722,8287,1949,471,512,,Sold,,,http://www.redfin.com/CA/El-Monte/10210-Ralph-St-91731/home/8003858,CRMLS,PW16034790,N,Y,34.0749584,-118.0485529
PAST SALE,April-2-2015,Single Family Residential,3631 Beuville Ave,El Monte,CA,91731,296000,2,1.0,619 - El Monte,616,6322,1946,850,481,,Sold,,,http://www.redfin.com/CA/El-Monte/3631-Beuville-Ave-91731/home/8003863,CRMLS,WS15044948,N,Y,34.0744278,-118.0483598
PAST SALE,,Single Family Residential,3343 Granada Ave,El Monte,CA,91731,195000,2,1.0,,837,7569,1923,,233,,,,,http://www.redfin.com/CA/El-Monte/3343-Granada-Ave-91731/home/8003963,,,N,Y,34.0695676,-118.0408642
PAST SALE,May-12-2009,Single Family Residential,3333 GRANADA Ave,El Monte,CA,91731,205000,2,1.0,619 - El Monte,752,7500,1924,3001,273,,Sold,,,http://www.redfin.com/CA/El-Monte/3333-Granada-Ave-91731/home/8003961,CRMLS,P683492,N,Y,34.0693017,-118.0408871
PAST SALE,,Single Family Residential,10123 Brockway St,El Monte,CA,91733,340000,3,2.0,,1218,5782,1957,,279,,,,,http://www.redfin.com/CA/El-Monte/10123-Brockway-St-91733/home/8004877,,,N,Y,34.0703206,-118.0504303
PAST SALE,May-24-2015,Single Family Residential,10112 Whitmore St,El Monte,CA,91733,435000,3,2.0,619 - El Monte,1218,5702,1957,798,357,,Sold,,,http://www.redfin.com/CA/El-Monte/10112-Whitmore-St-91733/home/8005483,CRMLS,AR15050486,N,Y,34.0691526,-118.0502387
PAST SALE,July-11-2011,Single Family Residential,10117 Asher St,El Monte,CA,91733,345000,3,2.0,619 - El Monte,1166,5400,1957,2211,296,,Sold,,,http://www.redfin.com/CA/El-Monte/10117-Asher-St-91733/home/8005487,CRMLS,H11070267,N,Y,34.068973,-118.0499729
PAST SALE,,Single Family Residential,10126 Whitmore St,El Monte,CA,91733,142000,3,1.0,,1026,6233,1956,,138,,,,,http://www.redfin.com/CA/El-Monte/10126-Whitmore-St-91733/home/8005493,,,N,Y,34.0693681,-118.0497484
PAST SALE,August-8-2013,Single Family Residential,10131 ASHER St,El Monte,CA,91733,428000,3,2.0,619 - El Monte,1170,6693,1957,1452,366,,Sold,,,http://www.redfin.com/CA/El-Monte/10131-Asher-St-91733/home/8005491,i-Tech MLS,12176250,N,Y,34.0689694,-118.0492265
PAST SALE,October-29-2013,Single Family Residential,10206 Brockway St,El Monte,CA,91733,365000,3,1.75,619 - El Monte,1020,5430,1956,1370,358,,Sold,,,http://www.redfin.com/CA/El-Monte/10206-Brockway-St-91733/home/8005507,CRMLS,AR13181418,N,Y,34.0697043,-118.0485381
PAST SALE,,Single Family Residential,10117 Whitmore St,El Monte,CA,91733,190000,3,1.0,,1500,5378,1957,,127,,,,,http://www.redfin.com/CA/El-Monte/10117-Whitmore-St-91733/home/8005539,,,N,Y,34.0695872,-118.0502455
PAST SALE,,Condo/Co-op,11803 Ramona Blvd,El Monte,CA,91732,113000,3,3.0,,1511,,1986,,75,,,,,http://www.redfin.com/CA/El-Monte/11803-Ramona-Blvd-91732/home/7986593,,,N,Y,34.0749989,-118.016646
PAST SALE,,Single Family Residential,12026 Deana St,El Monte,CA,91732,127000,3,2.0,,1831,6782,1942,,69,,,,,http://www.redfin.com/CA/El-Monte/12026-Deana-St-91732/home/7987460,,,N,Y,34.071757,-118.013432
PAST SALE,January-6-2017,Townhouse,4021 Durfee Ave Unit D,El Monte,CA,91732,402000,3,2.0,619 - El Monte,1350,18656,1991,205,298,60,Sold,,,http://www.redfin.com/CA/El-Monte/4021-Durfee-Ave-91732/unit-D/home/7987136,CRMLS,TR16724460,N,Y,34.0733,-118.0068365
PAST SALE,August-1-2005,Condo/Co-op,3667 ALEGRIA,El Monte,CA,91731,402990,3,,619 - El Monte,1457,,2005,4381,277,222,Sold,,,http://www.redfin.com/CA/El-Monte/3667-Alegria-Dr-91731/home/103682276,CRMLS,P453651,N,Y,34.0751632,-118.0335984
PAST SALE,,Single Family Residential,10575 Marsen St,El Monte,CA,91731,187000,3,2.0,,1316,5355,1951,,142,,,,,http://www.redfin.com/CA/El-Monte/10575-Marsen-St-91731/home/8002575,,,N,Y,34.086944,-118.0395435
PAST SALE,,Single Family Residential,10543 Marsen St,El Monte,CA,91731,135000,3,2.0,,1404,5378,1951,,96,,,,,http://www.redfin.com/CA/El-Monte/10543-Marsen-St-91731/home/8002581,,,N,Y,34.0870975,-118.0405256
PAST SALE,January-7-2011,Single Family Residential,10590 Haverly St,El Monte,CA,91731,315000,3,1.0,619 - El Monte,989,6500,1951,2396,319,,Sold,,,http://www.redfin.com/CA/El-Monte/10590-Haverly-St-91731/home/8002597,CRMLS,W10123343,N,Y,34.0877716,-118.0384496
PAST SALE,,Single Family Residential,4563 Shasta Pl,El Monte,CA,91731,165000,3,1.0,,1024,6286,1954,,161,,,,,http://www.redfin.com/CA/El-Monte/4563-Shasta-Pl-91731/home/8002624,,,N,Y,34.0879952,-118.037715
PAST SALE,,Single Family Residential,4567 Shasta Pl,El Monte,CA,91731,149500,3,2.0,,1467,6318,1954,,102,,,,,http://www.redfin.com/CA/El-Monte/4567-Shasta-Pl-91731/home/8002625,,,N,Y,34.0881263,-118.0376396
PAST SALE,,Single Family Residential,4555 Shasta Pl,El Monte,CA,91731,137000,3,1.0,,1028,5950,1954,,133,,,,,http://www.redfin.com/CA/El-Monte/4555-Shasta-Pl-91731/home/8002623,,,N,Y,34.0878656,-118.0377807
PAST SALE,October-6-2011,Single Family Residential,4510 Esto Ave,El Monte,CA,91731,369000,3,2.0,619 - El Monte,1365,6355,1978,2124,270,,Sold,,,http://www.redfin.com/CA/El-Monte/4510-Esto-Ave-91731/home/8002631,CRMLS,W11110817,N,Y,34.086929,-118.039055
PAST SALE,,Single Family Residential,4511 Ranger Ave,El Monte,CA,91731,176000,3,2.0,,1252,5288,1954,,141,,,,,http://www.redfin.com/CA/El-Monte/4511-Ranger-Ave-91731/home/8002652,,,N,Y,34.0866545,-118.0375549
PAST SALE,October-25-2016,Single Family Residential,4508 Ranger Ave,El Monte,CA,91731,540000,3,2.0,619 - El Monte,1617,5593,1954,278,334,,Sold,,,http://www.redfin.com/CA/El-Monte/4508-Ranger-Ave-91731/home/8002849,CRMLS,CV16185939,N,Y,34.0863296,-118.0371838
PAST SALE,August-5-2014,Single Family Residential,4445 Whitney Dr,El Monte,CA,91731,385000,3,1.75,619 - El Monte,1136,5419,1954,1090,339,,Sold,,,http://www.redfin.com/CA/El-Monte/4445-Whitney-Dr-91731/home/8002877,CRMLS,WS14129662,N,Y,34.0857799,-118.0370969
PAST SALE,May-19-2014,Single Family Residential,4448 Shasta Pl,El Monte,CA,91731,405000,3,1.0,619 - El Monte,1024,5487,1954,1168,396,,Sold,,,http://www.redfin.com/CA/El-Monte/4448-Shasta-Pl-91731/home/8002895,CRMLS,AR14067645,N,Y,34.085189,-118.0384481
PAST SALE,October-21-2008,Single Family Residential,4483 Shasta Pl,El Monte,CA,91731,365000,2,1.75,619 - El Monte,1232,6250,1954,3204,296,,Sold,,,http://www.redfin.com/CA/El-Monte/4483-Shasta-Pl-91731/home/8002921,CRMLS,C08128884,N,Y,34.0860889,-118.0389953
PAST SALE,,Single Family Residential,10559 Glenfair St,El Monte,CA,91731,185000,3,1.0,,1314,5182,1950,,141,,,,,http://www.redfin.com/CA/El-Monte/10559-Glenfair-St-91731/home/8002972,,,N,Y,34.0862777,-118.0403184
PAST SALE,April-8-2008,Single Family Residential,10556 Glenfair St,El Monte,CA,91731,320000,3,1.0,619 - El Monte,1188,5250,1950,3400,269,,Sold,,,http://www.redfin.com/CA/El-Monte/10556-Glenfair-St-91731/home/8002995,CRMLS,M08014708,N,Y,34.085872,-118.040475
PAST SALE,November-16-2012,Single Family Residential,10562 Glenfair St,El Monte,CA,91731,319000,3,1.0,619 - El Monte,1024,5265,1950,1717,312,,Sold,,,http://www.redfin.com/CA/El-Monte/10562-Glenfair-St-91731/home/8002996,CRMLS,A12118860,N,Y,34.0859055,-118.0403233
PAST SALE,,Single Family Residential,10562 Frankmont St,El Monte,CA,91731,149000,3,1.0,,1024,5271,1950,,146,,,,,http://www.redfin.com/CA/El-Monte/10562-Frankmont-St-91731/home/8003026,,,N,Y,34.0852131,-118.0406129
PAST SALE,June-28-2016,Single Family Residential,10431 Gidley St,El Monte,CA,91731,400000,2,1.0,619 - El Monte,912,8011,1947,397,439,,Sold,,,http://www.redfin.com/CA/El-Monte/10431-Gidley-St-91731/home/8003084,CRMLS,CV16007577,N,Y,34.0842152,-118.0433658
PAST SALE,,Single Family Residential,10542 Bisby St,El Monte,CA,91731,140000,2,1.0,,890,10574,1937,,157,,,,,http://www.redfin.com/CA/El-Monte/10542-Bisby-St-91731/home/8003103,,,N,Y,34.0843352,-118.0409302
PAST SALE,June-3-2015,Single Family Residential,10522 Gidley,El Monte,CA,91731,385000,2,1.0,619 - El Monte,806,10496,1941,788,478,,Sold,,,http://www.redfin.com/CA/El-Monte/10522-Gidley-St-91731/home/8003131,CRMLS,MB14261212,N,Y,34.0834622,-118.0419985
PAST SALE,,Single Family Residential,4271 Esto Ave,El Monte,CA,91731,115000,2,1.0,,906,4946,1959,,127,,,,,http://www.redfin.com/CA/El-Monte/4271-Esto-Ave-91731/home/8003144,,,N,Y,34.0831033,-118.0411768
PAST SALE,,Single Family Residential,10450 Venita St,El Monte,CA,91731,275000,2,1.0,,1010,10837,1936,,272,,,,,http://www.redfin.com/CA/El-Monte/10450-Venita-St-91731/home/8003154,,,N,Y,34.0826259,-118.0431305
PAST SALE,,Single Family Residential,10635 Lower Azusa Rd,Temple City,CA,91780,385000,3,2.0,,1068,5249,1953,,360,,,,,http://www.redfin.com/CA/Temple-City/10635-Lower-Azusa-Rd-91780/home/8006740,,,N,Y,34.092624,-118.037439
PAST SALE,,Single Family Residential,9027 Hershey St,Rosemead,CA,91770,150000,3,2.0,,1137,5660,1952,,132,,,,,http://www.redfin.com/CA/Rosemead/9027-Hershey-St-91770/home/8012541,,,N,Y,34.0689801,-118.0724358
PAST SALE,February-18-2015,Single Family Residential,9078 Whitmore St,Rosemead,CA,91770,488888,3,1.75,651 - Rosemead/S. San Gabriel,1166,6170,1957,893,419,,Sold,,,http://www.redfin.com/CA/Rosemead/9078-Whitmore-St-91770/home/8012710,CRMLS,PW15001035,N,Y,34.0655389,-118.0705334
PAST SALE,October-17-2008,Single Family Residential,11721 RANCHITO St,El Monte,CA,91732,380000,3,2.0,619 - El Monte,1456,5022,1967,3208,261,,Sold,,,http://www.redfin.com/CA/El-Monte/11721-Ranchito-St-91732/home/7985559,CRMLS,P629210,N,Y,34.0881363,-118.012256
PAST SALE,,Single Family Residential,12534 Magnolia St,El Monte,CA,91732,12000,2,1.0,,720,5569,1938,,17,,,,,http://www.redfin.com/CA/El-Monte/12534-Magnolia-St-91732/home/7797838,,,N,Y,34.0527222,-118.0140108
PAST SALE,,Single Family Residential,2927 Parkway Dr,El Monte,CA,91732,112000,2,1.0,,993,7633,1971,,113,,,,,http://www.redfin.com/CA/El-Monte/2927-Parkway-Dr-91732/home/7797968,,,N,Y,34.0551171,-118.0123267
PAST SALE,,Single Family Residential,11326 Cherrylee Dr,El Monte,CA,91732,485000,2,3.0,,1721,7456,1957,,282,,,,,http://www.redfin.com/CA/El-Monte/11326-Cherrylee-Dr-91732/home/7979455,,,N,Y,34.0961082,-118.0186016
PAST SALE,August-28-2008,Single Family Residential,11434 Cherrylee Dr,El Monte,CA,91732,282000,3,2.0,619 - El Monte,1240,5940,1962,3258,227,,Sold,,,http://www.redfin.com/CA/El-Monte/11434-Cherrylee-Dr-91732/home/7979470,CRMLS,C08100665,N,Y,34.0952079,-118.0168047
PAST SALE,,Single Family Residential,5035 Elrovia Ave,El Monte,CA,91732,165000,2,1.0,,848,5513,1946,,195,,,,,http://www.redfin.com/CA/El-Monte/5035-Elrovia-Ave-91732/home/7979473,,,N,Y,34.094932,-118.0161109
PAST SALE,,Single Family Residential,11407 Cherrylee Dr,El Monte,CA,91732,129000,3,2.0,,1279,6058,1961,,101,,,,,http://www.redfin.com/CA/El-Monte/11407-Cherrylee-Dr-91732/home/7979477,,,N,Y,34.0965131,-118.0174931
PAST SALE,,Single Family Residential,5043 Elrovia Ave,El Monte,CA,91732,190000,3,2.0,,1267,5935,1950,,150,,,,,http://www.redfin.com/CA/El-Monte/5043-Elrovia-Ave-91732/home/7979483,,,N,Y,34.0950995,-118.0161027
PAST SALE,June-3-2015,Single Family Residential,5031 Elrovia Ave,El Monte,CA,91732,423000,3,1.75,619 - El Monte,1340,5191,1948,788,316,,Sold,,,http://www.redfin.com/CA/El-Monte/5031-Elrovia-Ave-91732/home/7979495,i-Tech MLS,315000333,N,Y,34.0948283,-118.0161819
PAST SALE,,Single Family Residential,11431 Hallwood Dr,El Monte,CA,91732,135000,3,2.0,,1144,6419,1961,,118,,,,,http://www.redfin.com/CA/El-Monte/11431-Hallwood-Dr-91732/home/7979502,,,N,Y,34.0948706,-118.017146
PAST SALE,November-3-2011,Single Family Residential,11339 Fairview St,El Monte,CA,91732,240000,2,2.0,619 - El Monte,926,5500,1953,2096,259,,Sold,,,http://www.redfin.com/CA/El-Monte/11339-Fairview-St-91732/home/7979541,CRMLS,I11066161,N,Y,34.093492,-118.0191277
PAST SALE,October-7-2008,Single Family Residential,4818 Cedar Ave,El Monte,CA,91732,335000,3,2.0,619 - El Monte,1130,4857,1960,3218,296,,Sold,,,http://www.redfin.com/CA/El-Monte/4818-Cedar-Ave-91732/home/7979589,CRMLS,C08120763,N,Y,34.0921056,-118.0206851
PAST SALE,,Condo/Co-op,11415 Lower Azusa Rd,El Monte,CA,91732,150000,3,3.0,,1685,,1988,,89,,,,,http://www.redfin.com/CA/El-Monte/11415-Lower-Azusa-Rd-91732/home/7979596,,,N,Y,34.0918191,-118.0186853
PAST SALE,,Single Family Residential,11512 Hallwood Dr,El Monte,CA,91732,196000,3,2.0,,1488,5031,1970,,132,,,,,http://www.redfin.com/CA/El-Monte/11512-Hallwood-Dr-91732/home/7979716,,,N,Y,34.0937614,-118.0157162
PAST SALE,,Single Family Residential,5032 Elrovia Ave,El Monte,CA,91732,185000,3,2.0,,1488,4872,1970,,124,,,,,http://www.redfin.com/CA/El-Monte/5032-Elrovia-Ave-91732/home/7979746,,,N,Y,34.0947607,-118.0156541
PAST SALE,April-12-2012,Single Family Residential,5139 Elrovia Ave,El Monte,CA,91732,273000,3,2.0,699 - Not Defined,1070,7829,1948,1935,255,,Sold,,,http://www.redfin.com/CA/El-Monte/5139-Elrovia-Ave-91732/home/7979859,CRMLS,C12007618,N,Y,34.0969256,-118.0157683
PAST SALE,December-5-2008,Single Family Residential,11615 Killian St,El Monte,CA,91732,200000,2,1.0,619 - El Monte,804,4199,1956,3159,249,,Sold,,,http://www.redfin.com/CA/El-Monte/11615-Killian-St-91732/home/7985702,CRMLS,A08123648,N,Y,34.0855656,-118.0163697
PAST SALE,,Single Family Residential,4441 Fandon Ave,El Monte,CA,91732,240000,2,1.0,,1088,14386,1947,,221,,,,,http://www.redfin.com/CA/El-Monte/4441-Fandon-Ave-91732/home/7985870,,,N,Y,34.084652,-118.0162111
PAST SALE,September-25-2009,Single Family Residential,4311 Richwood Ave,El Monte,CA,91732,285028,2,1.0,El Monte,962,5092,1952,2865,296,,Sold,,,http://www.redfin.com/CA/El-Monte/4311-Richwood-Ave-91732/home/7985888,TheMLS,09-388279,N,Y,34.0815917,-118.0157284
PAST SALE,October-20-2016,Single Family Residential,11667 Lambert Ave,El Monte,CA,91732,478000,3,2.0,619 - El Monte,1536,7294,1939,283,311,,Sold,,,http://www.redfin.com/CA/El-Monte/11667-Lambert-Ave-91732/home/7985892,CRMLS,WS16139591,N,Y,34.0817324,-118.0164335
PAST SALE,October-5-2010,Single Family Residential,4456 Fandon Ave,El Monte,CA,91732,320000,2,1.0,619 - El Monte,955,5850,1955,2490,335,,Sold,,,http://www.redfin.com/CA/El-Monte/4456-Fandon-Ave-91732/home/7985917,CRMLS,C10074643,N,Y,34.0848986,-118.0155572
PAST SALE,,Single Family Residential,4360 Fandon Ave,El Monte,CA,91732,204000,3,2.0,,1137,14433,1941,,179,,,,,http://www.redfin.com/CA/El-Monte/4360-Fandon-Ave-91732/home/7985927,,,N,Y,34.0833704,-118.0163056
PAST SALE,,Single Family Residential,11659 Lambert Ave,El Monte,CA,91732,278000,3,2.0,,1336,5136,1959,,208,,,,,http://www.redfin.com/CA/El-Monte/11659-Lambert-Ave-91732/home/7985936,,,N,Y,34.0817408,-118.0166658
PAST SALE,,Single Family Residential,4240 Richwood Ave,El Monte,CA,91732,148000,3,1.0,,967,8390,1955,,153,,,,,http://www.redfin.com/CA/El-Monte/4240-Richwood-Ave-91732/home/7986303,,,N,Y,34.0804683,-118.0159672
PAST SALE,,Single Family Residential,11635 Bryant Rd,El Monte,CA,91732,159000,3,2.0,,1147,5776,1962,,139,,,,,http://www.redfin.com/CA/El-Monte/11635-Bryant-Rd-91732/home/7986389,,,N,Y,34.0789913,-118.0190502
PAST SALE,July-31-2014,Single Family Residential,11424 Lambert Ave,El Monte,CA,91732,351000,3,2.0,619 - El Monte,1171,5937,1963,1095,300,,Sold,,,http://www.redfin.com/CA/El-Monte/11424-Lambert-Ave-91732/home/7998354,CRMLS,CV14057493,N,Y,34.082014,-118.0213743
PAST SALE,,Single Family Residential,4328 Crossvale Ave,El Monte,CA,91732,170000,3,2.0,,1245,4955,1961,,137,,,,,http://www.redfin.com/CA/El-Monte/4328-Crossvale-Ave-91732/home/7998950,,,N,Y,34.0833598,-118.0205387
PAST SALE,,Single Family Residential,4310 Elrovia Ave,El Monte,CA,91732,320000,3,2.0,,1455,4985,1952,,220,,,,,http://www.redfin.com/CA/El-Monte/4310-Elrovia-Ave-91732/home/7998978,,,N,Y,34.0826598,-118.0195537
PAST SALE,October-13-2015,Single Family Residential,4605 Cedar Ave,El Monte,CA,91732,410000,3,2.0,619 - El Monte,1210,6325,1962,656,339,,Sold,,,http://www.redfin.com/CA/El-Monte/4605-Cedar-Ave-91732/home/7999172,CRMLS,MB15188541,N,Y,34.0892458,-118.0224674
PAST SALE,,Single Family Residential,4617 Cedar Ave,El Monte,CA,91732,161000,3,2.0,,1283,8146,1965,,125,,,,,http://www.redfin.com/CA/El-Monte/4617-Cedar-Ave-91732/home/7999175,,,N,Y,34.0893021,-118.0219194
PAST SALE,,Single Family Residential,11455 Elmcrest St,El Monte,CA,91732,125000,2,1.0,,1391,5096,1950,,90,,,,,http://www.redfin.com/CA/El-Monte/11455-Elmcrest-St-91732/home/7999367,,,N,Y,34.0877933,-118.0180199
PAST SALE,,Single Family Residential,11421 Mulhall St,El Monte,CA,91732,232000,3,2.0,,1402,8457,1950,,165,,,,,http://www.redfin.com/CA/El-Monte/11421-Mulhall-St-91732/home/7999425,,,N,Y,34.0889071,-118.0190959
PAST SALE,,Single Family Residential,4723 Crossvale Ave,El Monte,CA,91732,155000,3,2.0,,1155,5254,1950,,134,,,,,http://www.redfin.com/CA/El-Monte/4723-Crossvale-Ave-91732/home/7999472,,,N,Y,34.090607,-118.0193252
PAST SALE,April-27-2009,Single Family Residential,4729 Crossvale Ave,El Monte,CA,91732,290000,2,1.0,El Monte,1286,6791,1950,3016,226,,Sold,,,http://www.redfin.com/CA/El-Monte/4729-Crossvale-Ave-91732/home/7999474,TheMLS,09-352571,N,Y,34.090893,-118.0191881
PAST SALE,,Single Family Residential,4716 Elrovia Ave,El Monte,CA,91732,157000,3,1.0,,986,5098,1950,,159,,,,,http://www.redfin.com/CA/El-Monte/4716-Elrovia-Ave-91732/home/7999488,,,N,Y,34.0902838,-118.017624
PAST SALE,,Single Family Residential,11512 Emery St,El Monte,CA,91732,122500,2,1.0,,696,4980,1954,,176,,,,,http://www.redfin.com/CA/El-Monte/11512-Emery-St-91732/home/7999524,,,N,Y,34.086718,-118.0174608
PAST SALE,October-19-2011,Single Family Residential,11627 KILLIAN St,El Monte,CA,91732,370500,3,2.0,619 - El Monte,2132,11029,1980,2111,174,,Sold,,,http://www.redfin.com/CA/El-Monte/11627-Killian-St-91732/home/17236246,CRMLS,P796386,N,Y,34.0855107,-118.0160255
PAST SALE,March-3-2017,Single Family Residential,4014 Maple Ave,El Monte,CA,91731,465000,3,2.0,619 - El Monte,1644,9351,1920,149,283,,Sold,,,http://www.redfin.com/CA/El-Monte/4014-Maple-Ave-91731/home/7997973,CRISNet,SR17012662,N,Y,34.0784367,-118.0231817
PAST SALE,March-30-2009,Single Family Residential,4113 EUNICE Ave,El Monte,CA,91731,271000,2,1.0,619 - El Monte,775,5950,1941,3044,350,,Sold,,,http://www.redfin.com/CA/El-Monte/4113-Eunice-Ave-91731/home/8003267,CRMLS,B2104885,N,Y,34.0819376,-118.0530864
PAST SALE,November-30-2010,Single Family Residential,4163 Eunice Ave,El Monte,CA,91731,270000,3,1.0,619 - El Monte,1194,5950,1938,2434,226,,Sold,,,http://www.redfin.com/CA/El-Monte/4163-Eunice-Ave-91731/home/8003277,CRMLS,I10084207,N,Y,34.0832375,-118.0526725
PAST SALE,,Condo/Co-op,4146 Rowland Ave,El Monte,CA,91731,205000,3,3.0,,1820,,1992,,113,,,,,http://www.redfin.com/CA/El-Monte/4146-Rowland-Ave-91731/home/8003287,,,N,Y,34.0831906,-118.053535
PAST SALE,,Condo/Co-op,4158 Rowland Ave,El Monte,CA,91731,147000,3,3.0,,1820,,1992,,81,,,,,http://www.redfin.com/CA/El-Monte/4158-Rowland-Ave-91731/home/8003292,,,N,Y,34.0832939,-118.0531724
PAST SALE,,Condo/Co-op,4152 Rowland Ave,El Monte,CA,91731,203000,3,3.0,,1820,,1992,,112,,,,,http://www.redfin.com/CA/El-Monte/4152-Rowland-Ave-91731/home/8003290,,,N,Y,34.0830648,-118.053068
PAST SALE,,Condo/Co-op,4160 Rowland Ave,El Monte,CA,91731,188000,3,3.0,,1820,,1992,,103,,,,,http://www.redfin.com/CA/El-Monte/4160-Rowland-Ave-91731/home/8003291,,,N,Y,34.0832489,-118.0530096
PAST SALE,June-7-2011,Single Family Residential,4148 Eunice Ave,El Monte,CA,91731,339000,3,2.0,619 - El Monte,1684,7050,1948,2245,201,,Sold,,,http://www.redfin.com/CA/El-Monte/4148-Eunice-Ave-91731/home/8003323,CRMLS,W10122082,N,Y,34.0827024,-118.0522311
PAST SALE,,Single Family Residential,9944 Bessie Ave,El Monte,CA,91731,120000,3,1.0,,796,5416,1955,,151,,,,,http://www.redfin.com/CA/El-Monte/9944-Bessie-Ave-91731/home/8003334,,,N,Y,34.0831602,-118.0521392
PAST SALE,,Single Family Residential,4152 Shirley Ave,El Monte,CA,91731,154500,2,1.0,,983,9084,1928,,157,,,,,http://www.redfin.com/CA/El-Monte/4152-Shirley-Ave-91731/home/8003405,,,N,Y,34.0822925,-118.050077
PAST SALE,,Single Family Residential,4855 Robinhood Ave,Temple City,CA,91780,270000,3,2.0,,1730,8077,1958,,156,,,,,http://www.redfin.com/CA/Temple-City/4855-Robinhood-Ave-91780/home/8006111,,,N,Y,34.0919415,-118.048011
PAST SALE,,Single Family Residential,4852 Agnes Ave,Temple City,CA,91780,228000,2,1.0,,1004,10200,1937,,227,,,,,http://www.redfin.com/CA/Temple-City/4852-Agnes-Ave-91780/home/8009946,,,N,Y,34.0919403,-118.0514607
PAST SALE,,Single Family Residential,4837 Willmonte Ave,Temple City,CA,91780,551000,3,2.0,,1631,8232,1954,,338,,,,,http://www.redfin.com/CA/Temple-City/4837-Willmonte-Ave-91780/home/8009951,,,N,Y,34.0916507,-118.0506337
PAST SALE,,Single Family Residential,4814 Agnes Ave,Temple City,CA,91780,205000,2,1.0,,1016,4995,1952,,202,,,,,http://www.redfin.com/CA/Temple-City/4814-Agnes-Ave-91780/home/8009957,,,N,Y,34.0908404,-118.05123
PAST SALE,March-31-2016,Single Family Residential,4840 Willmonte Ave,Temple City,CA,91780,680000,3,2.0,661 - Temple City,1444,6851,1956,486,471,,Sold,,,http://www.redfin.com/CA/Temple-City/4840-Willmonte-Ave-91780/home/8009973,CRMLS,WS16030758,N,Y,34.0918564,-118.0501679
PAST SALE,May-20-2010,Single Family Residential,4425 Temple City Blvd,Temple City,CA,91780,350000,2,1.0,661 - Temple City,1146,5340,1947,2628,305,,Sold,,,http://www.redfin.com/CA/Temple-City/4425-Temple-City-Blvd-91780/home/8010857,CRMLS,C09095210,N,Y,34.0877135,-118.0568198
PAST SALE,April-9-2012,Single Family Residential,4029 RIO HONDO Ave,Rosemead,CA,91770,322500,2,1.0,651 - Rosemead/S. San Gabriel,938,9146,1949,1938,344,,Sold,,,http://www.redfin.com/CA/Rosemead/4029-Rio-Hondo-Ave-91770/home/8010949,i-Tech MLS,12161359,N,Y,34.0819631,-118.0645014
PAST SALE,March-8-2017,Single Family Residential,2703 Seaman Ave,El Monte,CA,91733,549000,2,1.0,619 - El Monte,1918,11467,1948,144,286,,Sold,,,http://www.redfin.com/CA/El-Monte/2703-Seaman-Ave-91733/home/105654851,CRMLS,CV16112244,N,Y,34.0610546,-118.0530373
PAST SALE,,Single Family Residential,2538 Delco Ave,South El Monte,CA,91733,300000,3,2.0,,1100,6674,1948,,273,,,,,http://www.redfin.com/CA/South-El-Monte/2538-Delco-Ave-91733/home/7794803,,,N,Y,34.058439,-118.0433566
PAST SALE,,Single Family Residential,2631 Lexington Ave,El Monte,CA,91733,165000,2,1.0,,1100,2856,1971,,150,,,,,http://www.redfin.com/CA/El-Monte/2631-Lexington-Ave-91733/home/7795267,,,N,Y,34.0595056,-118.0391961
PAST SALE,,Condo/Co-op,3818 Durfee Ave Apt 5,El Monte,CA,91732,86500,3,3.0,,1198,,1981,,72,,,,,http://www.redfin.com/CA/El-Monte/3818-Durfee-Ave-91732/unit-5/home/7986709,,,N,Y,34.0707682,-118.0075663
PAST SALE,,Single Family Residential,2672 Delco Ave,El Monte,CA,91733,95000,3,1.0,,1357,7348,1947,,70,,,,,http://www.redfin.com/CA/El-Monte/2672-Delco-Ave-91733/home/7794616,,,N,Y,34.0607191,-118.0432921
PAST SALE,,Single Family Residential,2726 Central Ave,El Monte,CA,91733,137500,3,2.0,,1434,6777,1950,,96,,,,,http://www.redfin.com/CA/El-Monte/2726-Central-Ave-91733/home/7794706,,,N,Y,34.0616597,-118.0466361
PAST SALE,May-11-2015,Single Family Residential,2402 Cogswell Rd,El Monte,CA,91732,330000,2,1.0,619 - El Monte,960,5886,1947,811,344,,Sold,,,http://www.redfin.com/CA/El-Monte/2402-Cogswell-Rd-91732/home/7797082,CRMLS,PW15055303,N,Y,34.0546865,-118.027922
PAST SALE,,Single Family Residential,2431 Cogswell Rd,El Monte,CA,91732,110000,2,1.0,,858,7590,1941,,128,,,,,http://www.redfin.com/CA/El-Monte/2431-Cogswell-Rd-91732/home/7797128,,,N,Y,34.0554883,-118.0275457
PAST SALE,,Single Family Residential,12321 Felipe St,El Monte,CA,91732,120000,2,1.0,,996,4971,1940,,120,,,,,http://www.redfin.com/CA/El-Monte/12321-Felipe-St-91732/home/7797303,,,N,Y,34.0517471,-118.0213737
PAST SALE,July-21-2009,Single Family Residential,12413 CLINTON St,El Monte,CA,91732,187000,2,1.0,619 - El Monte,648,7100,1947,2931,289,,Sold,,,http://www.redfin.com/CA/El-Monte/12413-Clinton-St-91732/home/7797452,CRMLS,P689195,N,Y,34.0477609,-118.0222948
PAST SALE,,Single Family Residential,3134 San Pierre Dr,El Monte,CA,91732,95000,2,1.0,,873,7713,1940,,109,,,,,http://www.redfin.com/CA/El-Monte/3134-San-Pierre-Dr-91732/home/7996988,,,N,Y,34.0657622,-118.0288173
PAST SALE,,Single Family Residential,11427 Lee Ln,El Monte,CA,91731,52500,2,1.0,,864,5785,1929,,61,,,,,http://www.redfin.com/CA/El-Monte/11427-Lee-Ln-91731/home/7997646,,,N,Y,34.0730444,-118.0261275
PAST SALE,,Single Family Residential,3145 Nevada Ave,El Monte,CA,91731,170000,3,2.0,,1361,6947,1941,,125,,,,,http://www.redfin.com/CA/El-Monte/3145-Nevada-Ave-91731/home/8004714,,,N,Y,34.0658518,-118.0372849
PAST SALE,,Single Family Residential,3800 Tyler Ave,El Monte,CA,91731,169000,2,1.0,,1238,6652,1952,,137,,,,,http://www.redfin.com/CA/El-Monte/3800-Tyler-Ave-91731/home/7997659,,,N,Y,34.0785029,-118.033005
PAST SALE,,Single Family Residential,3911 Winston Dr,El Monte,CA,91731,159000,3,1.0,,1141,6180,1946,,139,,,,,http://www.redfin.com/CA/El-Monte/3911-Winston-Dr-91731/home/7997669,,,N,Y,34.0793133,-118.0320692
PAST SALE,February-13-2009,Single Family Residential,4020 WINSTON Dr,El Monte,CA,91731,312000,2,1.0,619 - El Monte,873,6250,1947,3089,357,,Sold,,,http://www.redfin.com/CA/El-Monte/4020-Winston-Dr-91731/home/7997699,CRMLS,C08070677,N,Y,34.080166,-118.031114
PAST SALE,,Single Family Residential,11246 Bryant Rd,El Monte,CA,91731,135000,2,1.0,,988,5995,1948,,137,,,,,http://www.redfin.com/CA/El-Monte/11246-Bryant-Rd-91731/home/7997881,,,N,Y,34.079563,-118.0260942
PAST SALE,November-6-2008,Single Family Residential,4010 Pine Ave,El Monte,CA,91731,448000,2,1.0,619 - El Monte,1664,9936,1934,3188,269,,Sold,,,http://www.redfin.com/CA/El-Monte/4010-Pine-Ave-91731/home/7997929,CRMLS,A08116487,N,Y,34.0788015,-118.0244701
PAST SALE,,Single Family Residential,11237 Basye St,El Monte,CA,91731,185000,1,1.0,,760,14969,1947,,243,,,,,http://www.redfin.com/CA/El-Monte/11237-Basye-St-91731/home/7998547,,,N,Y,34.082079,-118.0256747
PAST SALE,April-15-2016,Single Family Residential,11242 Lambert Ave,El Monte,CA,91731,429000,3,1.75,619 - El Monte,1058,5076,1964,471,405,,Sold,,,http://www.redfin.com/CA/El-Monte/11242-Lambert-Ave-91731/home/7998566,CRMLS,CV16003825,N,Y,34.0832459,-118.0251806
PAST SALE,,Single Family Residential,11103 Lambert Ave,El Monte,CA,91731,200500,3,2.0,,1748,11143,1928,,115,,,,,http://www.redfin.com/CA/El-Monte/11103-Lambert-Ave-91731/home/7998740,,,N,Y,34.0843883,-118.0285369
PAST SALE,,Single Family Residential,11153 Lambert Ave,El Monte,CA,91731,365000,3,2.0,,1246,6162,1962,,293,,,,,http://www.redfin.com/CA/El-Monte/11153-Lambert-Ave-91731/home/7998757,,,N,Y,34.0842347,-118.0268791
PAST SALE,,Single Family Residential,11143 Lambert Ave,El Monte,CA,91731,133000,3,2.0,,1157,5594,1960,,115,,,,,http://www.redfin.com/CA/El-Monte/11143-Lambert-Ave-91731/home/7998761,,,N,Y,34.0846076,-118.027066
PAST SALE,,Single Family Residential,4313 Cypress Ave,El Monte,CA,91731,139000,3,2.0,,1212,4005,1962,,115,,,,,http://www.redfin.com/CA/El-Monte/4313-Cypress-Ave-91731/home/7998777,,,N,Y,34.0842021,-118.0266452
PAST SALE,May-20-2009,Single Family Residential,11032 MCGIRK Ave,El Monte,CA,91731,260000,3,2.0,619 - El Monte,1157,5597,1960,2993,225,,Sold,,,http://www.redfin.com/CA/El-Monte/11032-Mc-Girk-Ave-91731/home/7998782,CRMLS,H08148795,N,Y,34.0851914,-118.0278994
PAST SALE,June-3-2011,Single Family Residential,11144 Mcgirk Ave,El Monte,CA,91731,230000,2,1.0,619 - El Monte,1156,4966,1948,2249,199,,Sold,,,http://www.redfin.com/CA/El-Monte/11144-Mc-Girk-Ave-91731/home/7998819,CRMLS,C10100688,N,Y,34.085154,-118.0246075
PAST SALE,,Condo/Co-op,11211 Lambert Ave,El Monte,CA,91731,110000,3,3.0,,1575,,1985,,70,,,,,http://www.redfin.com/CA/El-Monte/11211-Lambert-Ave-91731/home/7998834,,,N,Y,34.0840707,-118.0260772
PAST SALE,,Single Family Residential,11122 Lower Azusa Rd,El Monte,CA,91731,175000,3,3.0,,1599,2661,1988,,109,,,,,http://www.redfin.com/CA/El-Monte/11122-Lower-Azusa-Rd-91731/home/7998985,,,N,Y,34.0913666,-118.0238989
PAST SALE,,Single Family Residential,11081 Mc Girk Ave,El Monte,CA,91731,85000,3,2.0,,1146,6108,1927,,74,,,,,http://www.redfin.com/CA/El-Monte/11081-Mc-Girk-Ave-91731/home/7999021,,,N,Y,34.0858641,-118.0261953
PAST SALE,,Single Family Residential,5103 Marshburn Ave,Arcadia,CA,91006,438000,3,2.0,,1326,5605,1959,,330,,,,,http://www.redfin.com/CA/Arcadia/5103-Marshburn-Ave-91006/home/8000611,,,N,Y,34.0980892,-118.0251604
PAST SALE,,Single Family Residential,11236 Arrowood St,Arcadia,CA,91006,233000,3,2.0,,1326,5786,1959,,176,,,,,http://www.redfin.com/CA/Arcadia/11236-Arrowood-St-91006/home/8000622,,,N,Y,34.0992851,-118.0239493
PAST SALE,May-5-2009,Single Family Residential,5018 Marshburn Ave,Arcadia,CA,91006,536800,3,2.0,605 - Arcadia,1811,6100,1962,3008,296,,Sold,,,http://www.redfin.com/CA/Arcadia/5018-Marshburn-Ave-91006/home/8000660,CRMLS,A09008671,N,Y,34.0969281,-118.0247455
PAST SALE,August-29-2014,Single Family Residential,5028 Marshburn Ave,Arcadia,CA,91006,530000,3,2.0,605 - Arcadia,1442,5784,1962,1066,368,,Sold,,,http://www.redfin.com/CA/Arcadia/5028-Marshburn-Ave-91006/home/8000662,CRMLS,AR14100288,N,Y,34.097096,-118.0243732
PAST SALE,June-3-2010,Single Family Residential,5019 Santa Anita Ave,Temple City,CA,91780,443888,2,1.75,661 - Temple City,1460,8990,1951,2614,304,,Sold,,,http://www.redfin.com/CA/Temple-City/5019-Santa-Anita-Ave-91780/home/8001819,CRMLS,A10024721,N,Y,34.0975296,-118.029053
PAST SALE,,Single Family Residential,5005 Santa Anita Ave,Temple City,CA,91780,160000,3,1.0,,1159,9183,1954,,138,,,,,http://www.redfin.com/CA/Temple-City/5005-Santa-Anita-Ave-91780/home/8001821,,,N,Y,34.0972065,-118.0288671
PAST SALE,October-3-2013,Single Family Residential,5120 FARAGO,Temple City,CA,91780,459000,3,1.75,661 - Temple City,1130,5001,1957,1396,406,,Sold,,,http://www.redfin.com/CA/Temple-City/5120-Farago-Ave-91780/home/8001864,i-Tech MLS,22177880,N,Y,34.0985317,-118.0300545
PAST SALE,March-11-2015,Single Family Residential,5105 Myrtus Ave,Temple City,CA,91780,595000,3,2.0,661 - Temple City,1502,7046,1951,872,396,,Sold,,,http://www.redfin.com/CA/Temple-City/5105-Myrtus-Ave-91780/home/8001920,CRMLS,AR15015454,N,Y,34.098756,-118.0272958
PAST SALE,,Single Family Residential,5108 Myrtus Ave,Temple City,CA,91780,174500,3,2.0,,1413,6843,1946,,123,,,,,http://www.redfin.com/CA/Temple-City/5108-Myrtus-Ave-91780/home/8001948,,,N,Y,34.0983785,-118.0269474
PAST SALE,,Single Family Residential,10764 Fairview Ave,Temple City,CA,91780,188000,3,2.0,,1376,5596,1950,,137,,,,,http://www.redfin.com/CA/Temple-City/10764-Fairview-Ave-91780/home/8001991,,,N,Y,34.0939394,-118.0333691
PAST SALE,July-1-2014,Single Family Residential,4100 Riverview Ave,El Monte,CA,91731,470000,3,2.0,619 - El Monte,1332,5208,1977,1125,353,,Sold,,,http://www.redfin.com/CA/El-Monte/4100-Riverview-Ave-91731/home/8002182,CRMLS,TR14095935,N,Y,34.0817799,-118.0337881
PAST SALE,June-27-2014,Single Family Residential,3800 Daleview Ave,El Monte,CA,91731,445000,2,1.5,619 - El Monte,1750,7810,1953,1129,254,,Sold,,,http://www.redfin.com/CA/El-Monte/3800-Daleview-Ave-91731/home/8002200,CRMLS,AR14092542,N,Y,34.0793922,-118.0343837
PAST SALE,,Single Family Residential,10844 Montecito Dr,El Monte,CA,91731,179000,2,1.0,,918,8367,1947,,195,,,,,http://www.redfin.com/CA/El-Monte/10844-Montecito-Dr-91731/home/8002262,,,N,Y,34.0791485,-118.0355497
PAST SALE,,Single Family Residential,10920 Montecito Dr,El Monte,CA,91731,180000,2,2.0,,1595,9064,1946,,113,,,,,http://www.redfin.com/CA/El-Monte/10920-Montecito-Dr-91731/home/8002269,,,N,Y,34.0786614,-118.0344007
PAST SALE,,Single Family Residential,10696 Mulhall St,El Monte,CA,91731,164000,3,1.0,,1024,5261,1954,,160,,,,,http://www.redfin.com/CA/El-Monte/10696-Mulhall-St-91731/home/8002676,,,N,Y,34.0894678,-118.0359465
PAST SALE,,Single Family Residential,10697 Elmcrest St,El Monte,CA,91731,149500,3,1.0,,1024,5397,1954,,146,,,,,http://www.redfin.com/CA/El-Monte/10697-Elmcrest-St-91731/home/8002677,,,N,Y,34.0892026,-118.0361281
PAST SALE,January-23-2015,Single Family Residential,10676 Ellen St,El Monte,CA,91731,438000,3,1.75,619 - El Monte,1509,5475,1975,919,290,,Sold,,,http://www.redfin.com/CA/El-Monte/10676-Ellen-St-91731/home/8002727,CRMLS,AR14221417,N,Y,34.0912756,-118.0358291
PAST SALE,,Single Family Residential,4659 Whitney Dr,El Monte,CA,91731,168500,3,1.0,,1024,5264,1954,,165,,,,,http://www.redfin.com/CA/El-Monte/4659-Whitney-Dr-91731/home/8002778,,,N,Y,34.089411,-118.0351144
PAST SALE,July-20-2016,Single Family Residential,4517 Whitney Dr,El Monte,CA,91731,475000,3,2.0,619 - El Monte,1385,5406,1954,375,343,,Sold,,,http://www.redfin.com/CA/El-Monte/4517-Whitney-Dr-91731/home/8002836,CRMLS,WS16050941,N,Y,34.0864711,-118.0366977
PAST SALE,,Single Family Residential,4535 Whitney Dr,El Monte,CA,91731,135000,3,2.0,,1080,5260,1954,,125,,,,,http://www.redfin.com/CA/El-Monte/4535-Whitney-Dr-91731/home/8002839,,,N,Y,34.086875,-118.0364636
PAST SALE,,Single Family Residential,10659 Fairhall St,Temple City,CA,91780,150000,3,2.0,,1077,5534,1953,,139,,,,,http://www.redfin.com/CA/Temple-City/10659-Fairhall-St-91780/home/8006786,,,N,Y,34.093524,-118.0362146
PAST SALE,,Single Family Residential,10671 Fairhall St,Temple City,CA,91780,158000,3,2.0,,1077,6455,1953,,147,,,,,http://www.redfin.com/CA/Temple-City/10671-Fairhall-St-91780/home/8006788,,,N,Y,34.0936204,-118.035831
PAST SALE,September-19-2014,Single Family Residential,10645 Roseglen St,Temple City,CA,91780,523800,3,1.5,661 - Temple City,1068,5043,1953,1045,490,,Sold,,,http://www.redfin.com/CA/Temple-City/10645-Roseglen-St-91780/home/8006802,CRMLS,PW14113798,N,Y,34.0940889,-118.0367852
PAST SALE,July-24-2008,Single Family Residential,10657 Hallwood Dr,Temple City,CA,91780,427000,3,2.0,661 - Temple City,1077,4998,1954,3293,396,,Sold,,,http://www.redfin.com/CA/Temple-City/10657-Hallwood-Dr-91780/home/8006822,CRMLS,C08082429,N,Y,34.0947813,-118.036575
PAST SALE,,Single Family Residential,3780 Strang Ave,Rosemead,CA,91770,485000,2,2.0,,1328,7618,1950,,365,,,,,http://www.redfin.com/CA/Rosemead/3780-Strang-Ave-91770/home/8003600,,,N,Y,34.0781067,-118.0560435
PAST SALE,,Single Family Residential,9909 Marshall St,El Monte,CA,91731,110000,2,2.0,,1228,10073,1934,,90,,,,,http://www.redfin.com/CA/El-Monte/9909-Marshall-St-91731/home/8003637,,,N,Y,34.075456,-118.0547042
PAST SALE,,Condo/Co-op,3526 Baldwin Ave Apt D,El Monte,CA,91731,108000,3,3.0,,1175,,1985,,92,,,,,http://www.redfin.com/CA/El-Monte/3526-Baldwin-Ave-91731/unit-D/home/8003711,,,N,Y,34.0736881,-118.0535127
PAST SALE,,Condo/Co-op,3708 Baldwin Ave Apt 2,El Monte,CA,91731,79500,2,2.0,,1145,,1980,,69,,,,,http://www.redfin.com/CA/El-Monte/3708-Baldwin-Ave-91731/unit-2/home/8003753,,,N,Y,34.075674,-118.053037
PAST SALE,,Condo/Co-op,3708 Baldwin Ave Apt 1,El Monte,CA,91731,77500,3,2.0,,1403,,1980,,55,,,,,http://www.redfin.com/CA/El-Monte/3708-Baldwin-Ave-91731/unit-1/home/8003752,,,N,Y,34.075674,-118.053037
PAST SALE,,Condo/Co-op,3708 Baldwin Ave Apt 3,El Monte,CA,91731,169000,2,2.0,,1145,,1980,,148,,,,,http://www.redfin.com/CA/El-Monte/3708-Baldwin-Ave-91731/unit-3/home/8003754,,,N,Y,34.075674,-118.053037
PAST SALE,,Condo/Co-op,3708 Baldwin Ave Apt 5,El Monte,CA,91731,75000,3,2.0,,1403,,1980,,53,,,,,http://www.redfin.com/CA/El-Monte/3708-Baldwin-Ave-91731/unit-5/home/8003756,,,N,Y,34.075674,-118.053037
PAST SALE,,Condo/Co-op,3708 Baldwin Ave Apt 11,El Monte,CA,91731,85000,2,2.0,,1145,,1980,,74,,,,,http://www.redfin.com/CA/El-Monte/3708-Baldwin-Ave-91731/unit-11/home/8003762,,,N,Y,34.075674,-118.053037
PAST SALE,July-29-2015,Single Family Residential,9886 Towneway Dr,El Monte,CA,91733,393000,3,1.75,619 - El Monte,1462,5080,1956,732,269,,Sold,,,http://www.redfin.com/CA/El-Monte/9886-Towneway-Dr-91733/home/8004968,CRMLS,WS15132006,N,Y,34.0664028,-118.0525464
PAST SALE,,Single Family Residential,9812 Towneway Dr,El Monte,CA,91733,201500,3,2.0,,1218,5218,1956,,165,,,,,http://www.redfin.com/CA/El-Monte/9812-Towneway-Dr-91733/home/8004989,,,N,Y,34.0676896,-118.0554226
PAST SALE,May-17-2010,Single Family Residential,3157 Potrero Ave,El Monte,CA,91733,220000,2,1.0,619 - El Monte,1080,7240,1946,2631,204,,Sold,,,http://www.redfin.com/CA/El-Monte/3157-Potrero-Ave-91733/home/8005112,CRMLS,W09124852,N,Y,34.0666001,-118.0560939
PAST SALE,,Single Family Residential,3151 Potrero Ave,El Monte,CA,91733,123000,2,1.0,,796,3869,1947,,155,,,,,http://www.redfin.com/CA/El-Monte/3151-Potrero-Ave-91733/home/8005127,,,N,Y,34.0664645,-118.0560555
PAST SALE,,Single Family Residential,9708 Whitmore St,El Monte,CA,91733,169000,3,2.0,,1169,5776,1944,,145,,,,,http://www.redfin.com/CA/El-Monte/9708-Whitmore-St-91733/home/8005146,,,N,Y,34.0660537,-118.058215
PAST SALE,,Single Family Residential,3148 Potrero Ave,El Monte,CA,91733,182000,2,1.0,,959,7988,1956,,190,,,,,http://www.redfin.com/CA/El-Monte/3148-Potrero-Ave-91733/home/8005199,,,N,Y,34.0663939,-118.0556093
PAST SALE,,Single Family Residential,9855 Towneway Dr,El Monte,CA,91733,178500,3,2.0,,1170,8115,1956,,153,,,,,http://www.redfin.com/CA/El-Monte/9855-Towneway-Dr-91733/home/8005361,,,N,Y,34.0669955,-118.0535017
PAST SALE,April-1-2011,Single Family Residential,3151 Marybeth Ave,El Monte,CA,91733,399000,3,1.5,619 - El Monte,1620,7196,1957,2312,246,,Sold,,,http://www.redfin.com/CA/El-Monte/3151-Marybeth-Ave-91733/home/8005565,CRMLS,W11002274,N,Y,34.0658887,-118.0611967
PAST SALE,,Single Family Residential,3136 Marybeth Ave,El Monte,CA,91733,165000,3,2.0,,1438,7892,1957,,115,,,,,http://www.redfin.com/CA/El-Monte/3136-Marybeth-Ave-91733/home/8005595,,,N,Y,34.0654099,-118.0608975
PAST SALE,,Single Family Residential,9609 Steele St,Rosemead,CA,91770,200000,3,2.0,,1344,7142,1949,,149,,,,,http://www.redfin.com/CA/Rosemead/9609-Steele-St-91770/home/8011361,,,N,Y,34.0804767,-118.0600298
PAST SALE,,Single Family Residential,3918 Temple City Blvd,Rosemead,CA,91770,175000,1,1.0,,520,4635,1947,,337,,,,,http://www.redfin.com/CA/Rosemead/3918-Temple-City-Blvd-91770/home/8011808,,,N,Y,34.0804815,-118.058349
PAST SALE,,Single Family Residential,3757 Brookline Ave,Rosemead,CA,91770,137000,3,1.0,,1082,9237,1929,,127,,,,,http://www.redfin.com/CA/Rosemead/3757-Brookline-Ave-91770/home/8011826,,,N,Y,34.0774504,-118.0578376
PAST SALE,,Single Family Residential,3766 Brookline Ave,Rosemead,CA,91770,100000,2,1.0,,880,7511,1939,,114,,,,,http://www.redfin.com/CA/Rosemead/3766-Brookline-Ave-91770/home/8011960,,,N,Y,34.0777115,-118.0572047
PAST SALE,December-5-2014,Single Family Residential,3833 Strang Ave,Rosemead,CA,91770,610000,3,2.75,651 - Rosemead/S. San Gabriel,2263,7435,1954,968,270,,Sold,,,http://www.redfin.com/CA/Rosemead/3833-Strang-Ave-91770/home/8011971,CRMLS,AR14098490,N,Y,34.079331,-118.0566507
PAST SALE,,Single Family Residential,4008 Baldwin Ave,El Monte,CA,91731,175000,2,1.0,,988,6224,1936,,177,,,,,http://www.redfin.com/CA/El-Monte/4008-Baldwin-Ave-91731/home/8003395,,,N,Y,34.0803471,-118.0520213
PAST SALE,,Single Family Residential,11525 Hemlock St,El Monte,CA,91732,153000,2,1.0,,1000,10779,1954,,153,,,,,http://www.redfin.com/CA/El-Monte/11525-Hemlock-St-91732/home/7979853,,,N,Y,34.0971577,-118.0130751
PAST SALE,,Condo/Co-op,5243 La Madera Ave,El Monte,CA,91732,250000,3,3.0,,2483,,1992,,101,,,,,http://www.redfin.com/CA/El-Monte/5243-La-Madera-Ave-91732/home/7980276,,,N,Y,34.0959856,-118.0060394
PAST SALE,,Single Family Residential,11942 Rio Hondo Pkwy,El Monte,CA,91732,142500,3,1.0,,1146,5029,1961,,124,,,,,http://www.redfin.com/CA/El-Monte/11942-Rio-Hondo-Pkwy-91732/home/7980408,,,N,Y,34.0972699,-118.0027308
PAST SALE,,Single Family Residential,11940 Rio Hondo Pkwy,El Monte,CA,91732,121000,3,1.0,,1146,5892,1961,,106,,,,,http://www.redfin.com/CA/El-Monte/11940-Rio-Hondo-Pkwy-91732/home/7980409,,,N,Y,34.097105,-118.0028485
PAST SALE,,Single Family Residential,11929 Rio Hondo Pkwy,El Monte,CA,91732,140000,2,1.0,,712,18131,1950,,197,,,,,http://www.redfin.com/CA/El-Monte/11929-Rio-Hondo-Pkwy-91732/home/7980424,,,N,Y,34.0981879,-118.0027519
PAST SALE,,Single Family Residential,12045 Rio Hondo Pkwy,El Monte,CA,91732,250000,2,1.0,,920,5058,1953,,272,,,,,http://www.redfin.com/CA/El-Monte/12045-Rio-Hondo-Pkwy-91732/home/7980485,,,N,Y,34.0971507,-118.0000912
PAST SALE,,Single Family Residential,12057 Rio Hondo Pkwy,El Monte,CA,91732,277000,2,1.0,,756,3516,1953,,366,,,,,http://www.redfin.com/CA/El-Monte/12057-Rio-Hondo-Pkwy-91732/home/7980489,,,N,Y,34.0969884,-117.9997376
PAST SALE,,Single Family Residential,2660 Doreen Ave,El Monte,CA,91733,168000,3,1.0,,1057,7876,1947,,159,,,,,http://www.redfin.com/CA/El-Monte/2660-Doreen-Ave-91733/home/7794642,,,N,Y,34.0607211,-118.0445476
PAST SALE,,Single Family Residential,10355 Giovane St,El Monte,CA,91733,170000,3,2.0,,1334,5630,1976,,127,,,,,http://www.redfin.com/CA/El-Monte/10355-Giovane-St-91733/home/7794714,,,N,Y,34.0619147,-118.0450216
PAST SALE,September-20-2012,Single Family Residential,2806 Washington Ave,El Monte,CA,91733,350000,3,2.0,619 - El Monte,1236,7632,1929,1774,283,,Sold,,,http://www.redfin.com/CA/El-Monte/2806-Washington-Ave-91733/home/7795210,CRMLS,K12088266,N,Y,34.0621017,-118.0377975
PAST SALE,,Single Family Residential,2738 Washington Ave,El Monte,CA,91733,280000,2,1.0,,805,7307,1937,,348,,,,,http://www.redfin.com/CA/El-Monte/2738-Washington-Ave-91733/home/7795216,,,N,Y,34.0614785,-118.0377274
PAST SALE,August-24-2016,Single Family Residential,2743 Washington Ave,El Monte,CA,91733,370000,2,1.0,619 - El Monte,780,7233,1926,340,474,,Sold,,,http://www.redfin.com/CA/El-Monte/2743-Washington-Ave-91733/home/7795225,CRMLS,CV16123457,N,Y,34.0616555,-118.0382268
